name,kind,longitude,latitude,NumOfDoctor,General,Intern,Resident,Specialist
가톨릭대학교인천성모병원,상급종합,126.7248987,37.4848309,318,1,22,62,233
강북삼성병원,상급종합,126.96775,37.5684083,386,5,30,129,222
건국대학교병원,상급종합,127.0718276,37.5403764,432,3,37,159,233
경북대학교병원,상급종합,128.604125,35.866774,509,5,79,198,227
경상대학교병원,상급종합,128.0956717,35.1763252,313,1,32,97,183
경희대학교병원,상급종합,127.051852,37.5941195,465,3,60,172,230
계명대학교동산병원,상급종합,128.4801315,35.8538856,423,3,38,145,237
고려대학교의과대학부속구로병원,상급종합,126.8848701,37.492052,541,1,38,176,326
고려대학교의과대학부속안산병원,상급종합,126.8249033,37.3185144,365,4,28,107,226
고신대학교복음병원,상급종합,129.0139595,35.0809636,315,2,31,80,202
단국대학교의과대학부속병원,상급종합,127.172575,36.8415904,336,1,26,111,198
대구가톨릭대학교병원,상급종합,128.5679969,35.8436078,345,2,33,108,202
동아대학교병원,상급종합,129.017425,35.12019,351,5,27,102,217
부산대학교병원,상급종합,129.0188032,35.1008477,545,2,55,183,305
분당서울대학교병원,상급종합,127.1232509,37.3519807,750,8,3,210,529
삼성서울병원,상급종합,127.0851508,37.4882978,1356,21,103,399,833
서울대학교병원,상급종합,126.9990168,37.5797151,1586,15,180,565,826
순천향대학교부속 천안병원,상급종합,127.1358588,36.8027381,335,1,27,95,212
순천향대학교부속부천병원,상급종합,126.7629514,37.4986043,363,1,33,100,229
아주대학교병원,상급종합,127.0476764,37.2793927,676,18,63,195,400
양산부산대학교병원,상급종합,129.0057274,35.3281501,438,1,29,110,298
연세대학교 원주세브란스기독병원,상급종합,127.9456639,37.3490013,434,15,43,138,238
연세대학교의과대학 강남세브란스병원,상급종합,127.0462683,37.4929296,578,0,43,208,327
영남대학교병원,상급종합,128.58205,35.848107,381,2,39,125,215
원광대학교병원,상급종합,126.9595793,35.9646389,294,3,24,95,172
의료법인 길의료재단 길병원,상급종합,126.7092258,37.452171,551,9,54,162,326
인제대학교부산백병원,상급종합,129.0208609,35.1455173,376,2,36,117,221
인하대학교의과대학부속병원,상급종합,126.6340955,37.4586786,422,2,38,142,240
재단법인아산사회복지재단 서울아산병원,상급종합,127.107935,37.5265762,1645,22,131,447,1045
전남대학교병원,상급종합,126.9219641,35.1419213,483,1,49,177,256
전북대학교병원,상급종합,127.1411626,35.8470974,416,0,47,134,235
조선대학교병원,상급종합,126.9261468,35.1390538,302,0,29,115,158
중앙대학교병원,상급종합,126.9607839,37.5067481,398,1,41,135,221
충남대학교병원,상급종합,127.415363,36.316908,469,0,44,159,266
충북대학교병원,상급종합,127.4614843,36.6242237,316,5,24,92,195
칠곡경북대학교병원,상급종합,128.5646727,35.9564207,200,0,0,16,184
학교법인 고려중앙학원 고려대학교의과대학부속병원(안암병원),상급종합,127.0263537,37.5870165,536,4,43,175,314
학교법인가톨릭학원가톨릭대학교서울성모병원,상급종합,127.0051154,37.5009444,832,3,63,230,536
학교법인연세대학교의과대학세브란스병원,상급종합,126.9408265,37.5623446,1175,6,129,215,825
한림대학교성심병원,상급종합,126.9620529,37.3917575,397,1,33,132,231
한양대학교병원,상급종합,127.0441339,37.5596569,416,4,52,145,215
화순전남대학교병원,상급종합,127.0025,35.0594333,247,2,19,73,153
(의)나사렛의료재단 나사렛국제병원,종합병원,126.6704928,37.407958,53,5,0,0,48
(의)영문의료재단 다보스병원,종합병원,127.2114648,37.2314883,32,0,0,0,32
(재)미리내천주성삼성직수도회천주성삼병원,종합병원,128.7057175,35.8402416,23,1,0,0,22
KS병원,종합병원,126.8331484,35.1979238,40,1,0,0,39
가톨릭관동대학교 국제성모병원,종합병원,126.6836103,37.5424165,187,1,19,19,148
가톨릭대학교 성빈센트병원,종합병원,127.0274271,37.2779855,373,6,29,93,245
가톨릭대학교 여의도성모병원,종합병원,126.9367517,37.5183253,257,0,23,84,150
가톨릭대학교 은평성모병원,종합병원,126.9161912,37.6334945,248,8,13,41,186
가톨릭대학교부천성모병원,종합병원,126.7924167,37.4871165,255,4,22,75,154
가톨릭대학교의정부성모병원,종합병원,127.0777625,37.7587045,282,0,30,78,174
강남병원,종합병원,127.1115072,37.2737515,42,1,0,0,41
강동경희대학교의대병원,종합병원,127.1573794,37.5534484,296,1,23,85,187
강릉아산병원,종합병원,128.8578411,37.8184325,215,1,0,55,159
강원대학교병원,종합병원,127.744891,37.8751611,257,3,35,58,161
강원도 삼척의료원,종합병원,129.1638017,37.4403018,26,1,0,0,25
강원도 영월의료원,종합병원,128.4652388,37.1864525,18,3,0,0,15
강원도 원주의료원,종합병원,127.949225,37.332608,33,2,0,0,31
강원도강릉의료원,종합병원,128.8888317,37.7492828,18,3,0,0,15
강원도속초의료원,종합병원,128.5892485,38.2164607,27,2,0,0,25
강일병원,종합병원,128.8696709,35.2566817,29,0,0,0,29
건국대학교 충주병원,종합병원,127.9288169,36.9789801,89,1,0,16,72
검단탑병원,종합병원,126.6710215,37.5924931,45,2,0,0,43
경기도의료원 수원병원,종합병원,126.9963375,37.2918917,25,2,0,0,23
경기도의료원 안성병원,종합병원,127.2603668,37.0173531,27,0,0,0,27
경기도의료원 이천병원,종합병원,127.4325729,37.2827618,25,0,0,0,25
경기도의료원의정부병원,종합병원,127.0425004,37.741161,24,3,0,0,21
경기도의료원파주병원,종합병원,126.7801503,37.7550649,34,3,0,1,30
경기도의료원포천병원,종합병원,127.19828,37.9033163,22,1,0,0,21
경상남도마산의료원,종합병원,128.5655967,35.1992371,23,1,0,0,22
경상북도김천의료원,종합병원,128.1264391,36.1227232,40,4,0,0,36
경상북도안동의료원,종합병원,128.7321116,36.5682206,28,1,0,0,27
경상북도포항의료원,종합병원,129.3549409,36.0348814,21,3,0,0,18
경찰병원,종합병원,127.123509,37.4963836,122,1,14,38,69
계명대학교대구동산병원,종합병원,128.5831323,35.8694728,32,0,0,0,32
곽병원,종합병원,128.588613,35.870924,22,2,0,0,20
광명성애병원,종합병원,126.8713502,37.4736659,107,2,9,26,70
광양사랑병원,종합병원,127.6969657,34.9361846,20,0,0,0,20
광주기독병원,종합병원,126.911875,35.136665,137,1,16,29,91
광주병원,종합병원,126.9281408,35.178903,37,1,0,0,36
광주보훈병원,종합병원,126.849672,35.2079032,94,4,6,20,64
광주수완병원,종합병원,126.8241888,35.193096,18,0,0,0,18
광주씨티병원,종합병원,126.8994848,35.1177147,24,0,0,0,24
광주일곡병원,종합병원,126.8976135,35.2028543,23,0,0,0,23
광주한국병원,종합병원,126.8688067,35.15618284,25,0,0,0,25
광주현대병원,종합병원,126.897925,35.185676,32,1,0,0,31
광주희망병원,종합병원,126.8747341,35.2134937,24,0,0,0,24
구로성심병원,종합병원,126.8664159,37.4996715,31,0,0,0,31
구미강동병원,종합병원,128.4227832,36.0962038,36,3,0,0,33
구포성심병원,종합병원,129.0047235,35.2097132,31,1,0,0,30
국군수도병원,종합병원,127.1490752,37.3923712,123,0,0,2,121
국립암센터,종합병원,126.7834097,37.6632301,230,1,0,29,200
국립중앙의료원,종합병원,127.005671,37.5672138,216,4,26,57,129
국민건강보험공단일산병원,종합병원,126.7930401,37.6454754,247,1,4,42,200
근로복지공단 대전병원,종합병원,127.4285488,36.3683976,27,3,0,0,24
근로복지공단 순천병원,종합병원,127.5249267,34.9611351,24,3,0,0,21
근로복지공단 창원병원,종합병원,128.6717512,35.2187539,32,7,0,0,25
근로복지공단 태백병원,종합병원,129.0043366,37.1040964,19,2,0,0,17
근로복지공단안산병원,종합병원,126.874139,37.3167269,40,0,0,0,40
근로복지공단인천병원,종합병원,126.7536333,37.4767018,34,1,0,0,33
나사렛종합병원,종합병원,128.5250991,35.814713,26,0,0,0,26
나주종합병원,종합병원,126.7213975,35.0363159,25,2,0,0,23
남양주 한양병원,종합병원,127.2043933,37.6823474,32,1,0,0,31
남양주나눔병원,종합병원,127.2015641,37.6980156,16,1,0,0,15
노원을지대학교병원,종합병원,127.0699355,37.6364794,253,2,22,76,153
녹색병원,종합병원,127.0860738,37.5835731,37,4,0,0,33
당진종합병원,종합병원,126.6843802,36.9044521,27,0,0,0,27
대구가톨릭대학교 칠곡가톨릭병원,종합병원,128.549289,35.9348896,24,1,0,0,23
대구의료원,종합병원,128.540587,35.85964,51,1,0,17,33
대구파티마병원,종합병원,128.6244071,35.8842611,220,3,22,57,138
대동병원,종합병원,129.0802016,35.2042463,81,6,5,6,64
대림성모병원,종합병원,126.9072208,37.4906979,42,1,0,0,41
대아의료재단한도병원,종합병원,126.8076244,37.3340615,16,0,0,0,16
대자인병원,종합병원,127.1533991,35.8459811,88,3,0,0,85
대전보훈병원,종합병원,127.4396939,36.4473164,52,5,0,6,41
대전한국병원,종합병원,127.4358,36.3482369,31,2,0,0,29
대진의료재단 분당제생병원,종합병원,127.1217783,37.3882035,204,4,8,56,136
대청병원,종합병원,127.3705837,36.3081922,28,3,0,0,25
더블유병원,종합병원,128.5449673,35.8526417,31,0,0,0,31
동국대학교의과대학경주병원,종합병원,129.1966582,35.8583076,110,2,0,26,82
동국대학교일산불교병원,종합병원,126.8064233,37.6763969,256,2,28,74,152
동남권원자력의학원,종합병원,129.2435492,35.3214002,56,0,1,0,55
동래봉생병원,종합병원,129.096142,35.1969249,40,1,0,0,39
동아병원,종합병원,126.899838,35.13469,31,0,0,0,31
드림병원,종합병원,128.574456,35.839628,29,1,0,0,28
메디플렉스 세종병원,종합병원,126.7368717,37.5324735,87,2,1,0,84
명지성모병원,종합병원,126.8992778,37.4938833,34,0,0,0,34
목포기독병원,종합병원,126.4206,34.8045333,40,1,0,0,39
목포시의료원,종합병원,126.4053627,34.8039839,21,2,0,0,19
목포한국병원,종합병원,126.4164223,34.8092997,81,2,0,0,79
미래로21병원,종합병원,126.8852867,35.1410324,29,1,0,0,28
미즈메디병원,종합병원,126.8359357,37.5522178,55,0,0,0,55
베데스다병원,종합병원,129.0436024,35.3532708,14,1,0,0,13
부민병원,종합병원,126.8509273,37.556866,53,1,0,0,52
부산광역시의료원,종합병원,129.0592351,35.1872822,82,0,8,18,56
부산성모병원(재단법인 천주교부산교구유지재단),종합병원,129.109125,35.1104571,87,1,2,18,66
부안성모병원,종합병원,126.7344047,35.7248858,15,1,0,0,14
부천대성병원,종합병원,126.7841872,37.4925524,12,1,0,0,11
부천우리병원,종합병원,126.8052027,37.5208668,18,1,0,0,17
부평세림병원,종합병원,126.7199858,37.506872,52,2,3,9,38
비에스종합병원,종합병원,126.4859916,37.7360483,21,1,0,0,20
비에이치에스한서병원,종합병원,129.1131037,35.16088,55,1,0,5,49
빛가람종합병원,종합병원,126.7988049,35.0242217,11,0,0,0,11
빛고을전남대학교병원,종합병원,126.8963045,35.0943936,27,0,2,0,25
삼육부산병원,종합병원,129.011113,35.112774,45,3,1,4,37
삼육서울병원,종합병원,127.0653066,37.5879909,112,2,6,21,83
삼일병원,종합병원,128.5541817,35.833148,18,0,0,0,18
상무병원,종합병원,126.8538803,35.1527509,25,0,0,0,25
상주적십자병원,종합병원,128.1555556,36.4146221,24,1,0,0,23
서광병원,종합병원,126.8557303,35.1325949,24,0,0,0,24
서남대학교병원,종합병원,126.9150205,35.1447273,0,0,0,0,0
서산중앙병원,종합병원,126.5034636,36.7810108,31,2,0,0,29
서울산보람병원,종합병원,129.1207349,35.5600045,23,1,0,0,22
서울성심병원,종합병원,127.0497296,37.5843076,45,1,0,12,32
서울적십자병원,종합병원,126.9669974,37.5671805,52,4,4,8,36
서울특별시 동부병원,종합병원,127.031341,37.5753681,34,4,0,0,30
서울특별시보라매병원,종합병원,126.9239058,37.4934414,229,2,1,11,215
서울특별시서남병원,종합병원,126.8331531,37.5120195,34,1,0,0,33
서울특별시서울의료원,종합병원,127.0978309,37.6132762,220,1,26,70,123
선한병원,종합병원,126.8869987,35.1615633,22,1,0,0,21
성가롤로병원,종합병원,127.5437074,34.9647334,107,2,0,5,100
성남시의료원,종합병원,127.1391,37.4450622,70,1,0,0,69
성남중앙병원,종합병원,127.1619932,37.4528497,31,2,0,0,29
성심의료재단강동성심병원,종합병원,127.135378,37.5359971,242,0,18,85,139
성애의료재단 성애병원,종합병원,126.9225003,37.5120274,86,2,7,13,64
세란병원,종합병원,126.9574607,37.5751835,42,1,0,0,41
세종충남대학교병원,종합병원,127.2581036,36.51952392,101,0,0,0,101
속초보광병원,종합병원,128.5783901,38.1980014,20,2,0,0,18
순천의료재단 정병원,종합병원,127.1290046,37.4398589,28,0,0,0,28
순천중앙병원,종합병원,127.4844458,34.9514574,11,1,0,0,10
순천향대학교 부속 구미병원,종합병원,128.3827377,36.1029182,77,4,0,7,66
순천향대학교 부속 서울병원,종합병원,127.0042579,37.533804,354,2,37,118,197
신가병원,종합병원,126.8296527,35.1774148,26,0,0,0,26
씨엠병원,종합병원,126.9038757,37.5188095,28,1,0,0,27
아산충무병원,종합병원,127.0198062,36.7792648,56,0,0,0,56
안동성소병원,종합병원,128.7228172,36.5672423,58,1,0,0,57
안성성모병원,종합병원,127.2709213,37.0062179,34,0,0,0,34
에스포항병원,종합병원,129.3314023,36.0348245,34,0,0,0,34
에이치플러스 양지병원,종합병원,126.9325692,37.4841536,101,4,3,5,89
엔케이(NK)세종병원,종합병원,127.2622483,36.4796372,14,0,0,0,14
여수전남병원,종합병원,127.728018,34.7450673,38,2,0,3,33
여천전남병원,종합병원,127.6543239,34.7691121,42,2,0,0,40
연세대학교 의과대학 용인세브란스병원,종합병원,127.1482641,37.2707922,190,3,0,1,186
연세에스병원,종합병원,128.6981494,35.1549332,23,1,0,0,22
영광종합병원,종합병원,126.4989779,35.2844615,25,1,0,0,24
영남대학교의과대학부속영천병원,종합병원,128.913212,35.957285,22,1,0,0,21
영도병원,종합병원,129.0405236,35.0922416,32,0,1,2,29
영주적십자병원,종합병원,128.6040043,36.8252568,19,3,0,0,16
오산한국병원,종합병원,127.075277,37.1413334,66,3,1,3,59
온누리병원,종합병원,126.6543044,37.6028198,20,2,0,0,18
우리들병원,종합병원,126.7963265,37.5620454,23,0,0,0,23
운암한국병원,종합병원,126.8696694,35.1850041,23,1,0,0,22
울산엘리야병원,종합병원,129.3506003,35.6289468,14,0,0,0,14
웅상중앙병원,종합병원,129.1645729,35.4064091,27,1,0,0,26
원광대학교 산본병원,종합병원,126.9336147,37.3594127,80,0,4,19,57
의)근원의료재단경산중앙병원,종합병원,128.7401,35.8086667,31,2,0,0,29
의료법인 갈렌의료재단 박병원,종합병원,127.057003,37.048256,20,0,0,0,20
의료법인 강릉동인병원,종합병원,128.90735,37.77435,44,1,0,0,43
의료법인 거명의료재단 영광기독병원,종합병원,126.510877,35.274938,15,1,0,0,14
의료법인 거붕 백병원,종합병원,128.6261659,34.8736095,31,3,0,0,28
의료법인 건명의료재단 진천성모병원,종합병원,127.4404044,36.8585629,22,1,0,0,21
의료법인 광혜의료재단 광혜병원,종합병원,129.0711482,35.2070105,24,2,0,0,22
의료법인 남촌의료재단 시화병원,종합병원,126.7245975,37.3529459,48,1,0,0,47
의료법인 녹산의료재단동수원병원,종합병원,127.0344741,37.2781302,78,3,0,6,69
의료법인 녹향의료재단 신천연합병원,종합병원,126.7894932,37.4445152,19,0,0,0,19
의료법인 대우의료재단대우병원,종합병원,128.7220923,34.8719577,29,2,0,0,27
의료법인 동강의료재단 동강병원,종합병원,129.3020785,35.553448,95,3,0,4,88
의료법인 동강의료재단 동천동강병원,종합병원,129.3504382,35.568536,19,0,0,0,19
의료법인 동해동인병원,종합병원,129.1074625,37.5299417,20,2,0,0,18
의료법인 명인의료재단 화홍병원,종합병원,126.9638917,37.2601428,25,0,0,0,25
의료법인 박애의료재단 박애병원,종합병원,127.0890776,36.9930388,24,1,0,0,23
의료법인 백제병원,종합병원,127.0944739,36.192193,49,2,0,0,47
의료법인 서구의료재단 여수성심병원,종합병원,127.6987125,34.7659083,0,0,0,0,0
의료법인 석경의료재단 센트럴병원,종합병원,126.7281267,37.3369084,42,3,0,0,39
의료법인 성념의료재단맑은샘병원,종합병원,128.6436423,34.8977185,16,2,0,0,14
의료법인 성수의료재단 인천백병원,종합병원,126.6458376,37.4817037,25,1,0,0,24
의료법인 송은의료재단 울산시티병원,종합병원,129.3590343,35.5828446,32,2,0,0,30
의료법인 양진의료재단 평택성모병원,종합병원,127.0743384,37.0084078,62,0,0,0,62
의료법인 영동의료재단 의정부백병원,종합병원,127.0622375,37.7453263,23,2,0,0,21
의료법인 영서의료재단 천안충무병원,종합병원,127.1315016,36.7974023,60,4,0,0,56
의료법인 영훈의료재단 대전선병원,종합병원,127.4104139,36.3360669,91,1,7,17,66
의료법인 예당의료재단 예산종합병원,종합병원,126.8379717,36.6910744,11,0,0,0,11
의료법인 오성의료재단 동군산병원,종합병원,126.7372167,35.9773474,48,2,0,0,46
의료법인 온그룹의료재단 온종합병원,종합병원,129.0498801,35.157851,67,3,2,3,59
의료법인 우범의료재단 장흥종합병원,종합병원,126.9108915,34.6771753,11,0,0,0,11
의료법인 원광의료재단 원광종합병원,종합병원,127.0079849,37.2101716,17,0,0,0,17
의료법인 은성의료재단 좋은강안병원,종합병원,129.1106162,35.1500632,88,3,5,6,74
의료법인 은성의료재단 좋은삼정병원,종합병원,129.2688243,35.5528955,29,2,0,0,27
의료법인 은혜와감사의료재단 화성중앙종합병원,종합병원,126.9108361,37.1312957,17,2,0,0,15
의료법인 인당의료재단 부민병원,종합병원,129.0112115,35.2119276,62,1,2,4,55
의료법인 인당의료재단 해운대부민병원,종합병원,129.1556545,35.1614208,47,0,0,0,47
의료법인 인천사랑병원,종합병원,126.6807094,37.462204,71,4,0,6,61
의료법인 인화재단 한국병원,종합병원,127.496538,36.619507,80,10,3,2,65
의료법인 자산의료재단 제천서울병원,종합병원,128.2062355,37.138611,25,2,0,0,23
의료법인 정산의료재단 효성병원,종합병원,127.4953372,36.6244786,51,3,0,1,47
의료법인 정안의료재단 중앙병원,종합병원,129.3052035,35.5315232,36,3,0,0,33
의료법인 중앙의료재단 중앙병원,종합병원,126.4704807,33.4923212,31,0,0,0,31
의료법인 청구성심병원,종합병원,126.9197006,37.6208615,23,1,0,0,22
의료법인 플러스의료재단 단원병원,종합병원,126.8135158,37.30016761,47,0,0,0,47
의료법인 한마음국제의료재단 한마음창원병원,종합병원,128.6865915,35.2212186,62,1,0,0,61
의료법인 혜인의료재단 한국병원,종합병원,126.517062,33.500233,35,1,0,0,34
의료법인 힐링의료재단 옥천성모병원,종합병원,127.5720868,36.3134813,17,1,0,0,16
의료법인갑을의료재단갑을장유병원,종합병원,128.8056169,35.2086652,25,0,0,0,25
의료법인구의료재단 구병원,종합병원,128.5413832,35.8506394,33,1,0,0,32
의료법인기독교한국침례회의료재단왈레스기념 침례병원,종합병원,129.093593,35.2672656,0,0,0,0,0
의료법인대송의료재단 무안병원,종합병원,126.4893985,34.9916302,19,0,0,0,19
의료법인대인의료재단 다니엘종합병원,종합병원,126.7695002,37.5123285,25,2,0,0,23
의료법인덕산의료재단김천제일병원,종합병원,128.1187923,36.1354003,36,0,0,0,36
의료법인동신의료재단 동신병원,종합병원,126.9364251,37.5813323,21,2,0,0,19
의료법인동춘의료재단문경제일병원,종합병원,128.189225,36.58444,34,1,0,0,33
의료법인루가의료재단 나은병원,종합병원,126.6797423,37.4891168,69,3,0,0,66
의료법인명지의료재단명지병원,종합병원,126.8317297,37.6424757,240,3,36,47,154
의료법인명지의료재단명지병원,종합병원,128.233951,37.1634681,34,2,0,0,32
의료법인목포구암의료재단 목포중앙병원,종합병원,126.421025,34.8213917,44,1,0,0,43
의료법인백송의료재단 굿모닝병원,종합병원,127.1204114,36.9906277,94,1,0,0,93
의료법인보원의료재단 경희의료원교육협력 중앙병원,종합병원,128.8570753,35.2307339,54,1,3,0,50
의료법인삼백의료재단상주성모병원,종합병원,128.159725,36.4203096,22,0,0,0,22
의료법인석영의료재단창원제일종합병원,종합병원,128.5676,35.199085,17,2,0,0,15
의료법인석천재단고창병원,종합병원,126.6933531,35.4364278,15,1,0,0,14
의료법인성광의료재단일산차병원,종합병원,126.7757374,37.6541317,71,1,0,0,70
의료법인성세의료재단 뉴 성민병원,종합병원,126.6698666,37.5097941,29,0,0,0,29
의료법인성화의료재단  대한병원,종합병원,127.0226914,37.6354747,15,2,0,0,13
의료법인숭인의료재단 김해복음병원,종합병원,128.8931625,35.2306263,23,1,0,0,22
의료법인안동병원,종합병원,128.7010976,36.5467408,100,1,0,0,99
의료법인영경의료재단전주병원,종합병원,127.1248117,35.8152449,33,0,0,0,33
의료법인영성의료재단 고흥종합병원,종합병원,127.2939625,34.6210654,17,2,0,0,15
의료법인영훈의료재단 유성선병원,종합병원,127.3249507,36.3751715,91,3,0,0,88
의료법인우리의료재단김포우리병원,종합병원,126.7107331,37.6323325,81,2,2,6,71
의료법인은성의료재단좋은삼선병원,종합병원,129.0081663,35.1505,75,2,6,7,60
의료법인은성의료재단좋은선린병원,종합병원,129.3670367,36.0482631,28,4,0,0,24
의료법인인봉의료재단뉴고려병원,종합병원,126.6602289,37.6409296,63,1,0,0,62
의료법인일심의료재단우리병원,종합병원,127.1481116,37.8274803,31,0,0,0,31
의료법인정화의료재단 김원묵기념봉생병원,종합병원,129.0501832,35.1310012,64,0,0,7,57
의료법인청아의료재단청아병원,종합병원,128.50965,35.248035,20,1,0,0,19
의료법인청언의료재단 순천제일병원,종합병원,127.524175,34.9549263,13,0,0,0,13
의료법인풍산의료재단동부제일병원,종합병원,127.1090094,37.6007085,19,1,0,0,18
의료법인한국의료재단 순천한국병원,종합병원,127.5122885,34.9477666,23,0,0,0,23
의료법인한마음의료재단하나병원,종합병원,127.4308627,36.6235047,68,4,2,5,57
의료법인한성재단포항세명기독병원,종합병원,129.3622256,36.0177172,114,4,0,0,110
의료법인한전의료재단 한일병원,종합병원,127.0291228,37.6461401,117,2,3,27,85
의료법인합포의료재단에스엠지연세병원,종합병원,128.5616013,35.1863148,41,2,0,0,39
의료법인해민의료재단 세안종합병원,종합병원,126.3802331,34.8168192,16,1,0,0,15
의료법인행촌의료재단 해남종합병원,종합병원,126.6127915,34.5717972,25,1,0,0,24
의료법인혜명심의료재단 울산병원,종합병원,129.3231103,35.5462649,42,1,0,0,41
의료법인혜원의료재단세종병원,종합병원,126.791225,37.4810179,87,1,5,9,72
의료법인환명의료재단 조은금강병원,종합병원,128.8615328,35.2623214,31,1,0,0,30
의산의료재단 강릉고려병원,종합병원,128.8998047,37.7590068,15,2,0,0,13
이화여자대학교의과대학부속목동병원,종합병원,126.8862379,37.5362859,392,2,38,149,203
이화여자대학교의과대학부속서울병원,종합병원,126.8362668,37.5572629,182,1,0,0,181
익산병원,종합병원,126.9665159,35.9616504,41,2,0,0,39
인산의료재단 메트로병원,종합병원,126.9352309,37.3786666,16,1,0,0,15
인제대학교 상계백병원,종합병원,127.0631233,37.6485282,308,1,27,124,156
인제대학교 서울백병원,종합병원,126.9886722,37.56482718,99,1,4,24,70
인제대학교 해운대백병원,종합병원,129.182013,35.173443,316,1,23,81,211
인제대학교일산백병원,종합병원,126.7504331,37.6743138,300,1,26,109,164
인천광역시의료원,종합병원,126.66875,37.4787429,41,1,0,0,40
인천기독병원,종합병원,126.6321078,37.471217,21,3,0,0,18
재단법인 아산사회복지재단 부속 보령아산병원,종합병원,126.6228522,36.3811282,17,0,0,0,17
재단법인 아산사회복지재단 정읍아산병원,종합병원,126.8234125,35.5888321,24,0,0,0,24
재단법인대구포교성베네딕도수녀회창원파티마병원,종합병원,128.645913,35.237293,105,0,10,1,94
재단법인베스티안재단베스티안병원,종합병원,127.3216409,36.6364294,15,1,0,0,14
재단법인베스티안재단베스티안서울병원,종합병원,127.0572145,37.49805,11,0,0,0,11
재단법인예수병원유지재단예수병원,종합병원,127.1332292,35.8143917,222,3,20,55,144
재단법인천주교부산교구유지재단 메리놀병원,종합병원,129.0324148,35.1076838,78,0,3,17,58
재단법인한호기독교선교회 일신기독병원,종합병원,129.0543811,35.135783,40,1,0,0,39
전라북도 군산의료원,종합병원,126.7117407,35.9549526,55,2,4,6,43
전라북도 남원의료원,종합병원,127.4073171,35.4318756,40,3,0,3,34
전주고려병원,종합병원,127.1670378,35.8398807,18,0,0,0,18
제일병원,종합병원,128.0902544,35.1794723,56,0,0,0,56
제주대학교병원,종합병원,126.5452109,33.4671105,247,1,22,50,174
제주특별자치도 서귀포의료원,종합병원,126.5639216,33.2555355,44,0,0,0,44
제주한라병원,종합병원,126.4850403,33.489961,134,3,0,15,116
조은오산병원,종합병원,127.0682104,37.1542524,19,0,0,0,19
좋은문화병원,종합병원,129.0590772,35.140867,70,7,0,1,62
진주고려병원,종합병원,128.0920865,35.1784916,32,2,0,0,30
차의과학대학교 강남차병원,종합병원,127.035055,37.5067941,91,0,0,6,85
차의과학대학교부속구미차병원,종합병원,128.3405414,36.1145325,72,0,0,0,72
차의과학대학교분당차병원,종합병원,127.1254535,37.4102384,483,7,38,150,288
참조은병원,종합병원,127.2602408,37.4109444,61,3,0,0,58
창원경상대학교병원,종합병원,128.7078463,35.1990873,160,0,3,12,145
첨단종합병원,종합병원,126.8453041,35.2211088,47,2,0,0,45
청주성모병원,종합병원,127.4856059,36.673536,103,0,15,11,77
추병원,종합병원,127.0451394,37.749733,37,0,2,4,31
충청남도 공주의료원,종합병원,127.1094762,36.458987,29,2,0,0,27
충청남도 서산의료원,종합병원,126.4652578,36.7755835,29,1,0,0,28
충청남도 천안의료원,종합병원,127.1791797,36.7756271,26,2,0,0,24
충청남도 홍성의료원,종합병원,126.674413,36.599349,42,1,0,0,41
충청북도 청주의료원,종합병원,127.4730326,36.6402026,50,5,0,0,45
충청북도 충주의료원,종합병원,127.9706116,36.9796506,29,2,0,0,27
포항성모병원,종합병원,129.3399527,36.0159003,97,1,0,7,89
하남성심병원,종합병원,126.8009264,35.1665416,25,1,0,0,24
학교법인 건양교육재단 건양대학교병원,종합병원,127.342613,36.306642,271,2,30,83,156
학교법인 울산공업학원 울산대학교병원,종합병원,129.4289116,35.5200702,357,5,30,90,232
학교법인 을지학원 대전을지대학교병원,종합병원,127.3819903,36.3552891,246,1,19,78,148
학교법인 춘해병원,종합병원,129.0583709,35.146981,25,2,0,0,23
학교법인)동의병원,종합병원,129.076514,35.1698203,87,5,1,16,65
학교법인가톨릭학원 가톨릭대학교 대전성모병원,종합병원,127.420163,36.323042,206,1,22,50,133
학교법인성균관대학삼성창원병원,종합병원,128.5920245,35.2428774,287,3,36,55,193
한국보훈복지의료공단 대구보훈병원,종합병원,128.5519785,35.8028206,68,5,0,7,56
한국보훈복지의료공단 부산보훈병원,종합병원,129.006575,35.1533821,94,2,6,18,68
한국보훈복지의료공단 중앙보훈병원,종합병원,127.1481606,37.530634,311,0,35,100,176
한국원자력의학원원자력병원,종합병원,127.0826965,37.6288213,192,6,27,39,120
한림대학교 강남성심병원,종합병원,126.9086527,37.4937262,262,1,26,87,148
한림대학교 한강성심병원,종합병원,126.9096811,37.5231702,23,0,0,0,23
한림대학교동탄성심병원,종합병원,127.0801288,37.2166284,265,0,28,65,172
한림대학교부속 춘천성심병원,종합병원,127.7399592,37.8840791,157,0,11,39,107
한림병원,종합병원,126.7343174,37.5322162,85,3,0,0,82
한마음병원,종합병원,126.5461481,33.4963547,35,1,0,0,34
한양대학교구리병원,종합병원,127.1324273,37.6012985,234,0,23,72,139
한일병원,종합병원,128.1286241,35.1669658,29,3,0,0,26
해남우리종합병원,종합병원,126.6465633,34.5842521,25,1,0,0,24
해동병원,종합병원,129.043866,35.0919442,29,0,0,0,29
해피뷰병원,종합병원,126.906773,35.1586417,19,0,0,0,19
현대병원,종합병원,127.179882,37.7154268,67,1,0,0,66
현대유비스병원,종합병원,126.6430071,37.461611,47,2,0,0,45
혜민병원,종합병원,127.0836246,37.5354079,35,0,0,0,35
홍익병원,종합병원,126.8636551,37.5284838,70,1,3,11,55
홍천아산병원,종합병원,127.8948538,37.6908303,12,2,0,0,10
효산의료재단 안양샘병원,종합병원,126.924394,37.3935234,108,6,5,10,87
효산의료재단 지샘병원,종합병원,126.9473164,37.358672,75,2,3,3,67
희명병원,종합병원,126.9005836,37.4556869,30,1,0,0,29
(복지)예사랑병원,병원,129.0133103,35.0973247,3,0,0,0,3
(신)제일병원,병원,126.593625,36.343682,5,0,0,0,5
(의) 내경의료재단 울산제일병원,병원,129.307013,35.548283,10,1,0,0,9
(의) 상원의료재단 인천힘찬병원,병원,126.6774606,37.4147189,11,0,0,0,11
(의)경빈의료재단 김해센텀병원,병원,128.8692937,35.2393008,7,0,0,0,7
(의)고담의료재단마더스병원,병원,129.3405,35.5344,9,0,0,0,9
(의)동아의료재단동아병원,병원,126.885759,35.8008934,0,0,0,0,0
(의)서봉의료재단 보강병원,병원,128.5256935,35.8137342,17,0,0,0,17
(의)서일의료재단기장병원,병원,129.2164239,35.2359827,11,1,0,0,10
(의)아나의료재단 강릉아나병원,병원,128.9029668,37.7604484,7,1,0,0,6
(의)인석의료재단 보람병원,병원,129.3410075,35.5425577,24,0,0,0,24
(의)효심의료재단 용인서울병원,병원,127.2145364,37.2403912,14,3,0,0,11
(재)마리아수녀회 알로이시오 기념병원,병원,129.0133816,35.0825614,3,0,0,0,3
(재)예수의꽃동네유지재단 인곡자애병원,병원,127.5776563,36.9418563,6,1,0,0,5
(재)한·호기독교선교회 맥켄지화명일신기독병원,병원,129.0077714,35.2209901,12,1,0,0,11
(재)한호기독선교회 정관일신기독병원,병원,129.1774513,35.3197034,16,0,0,0,16
(本)본브릿지병원,병원,127.0995242,37.5153483,9,0,0,0,9
21C한일병원,병원,128.5206528,34.9015685,4,0,0,0,4
21세기라파병원,병원,129.0618849,35.1618574,5,0,0,0,5
21세기병원,병원,127.0157273,37.4852908,10,0,0,0,10
21세기병원,병원,126.7021958,37.4549364,13,1,0,0,12
21세기병원,병원,127.9327068,37.3434884,5,0,0,0,5
365병원,병원,128.5794663,35.2337643,11,0,0,0,11
365엠씨(mc)병원,병원,127.0141365,37.4929843,17,0,0,0,17
365엠씨병원,병원,129.058155,35.1572051,10,2,0,0,8
365하하병원,병원,128.9032736,35.08113953,4,0,0,0,4
9988병원,병원,127.0375193,37.5585817,8,0,0,0,8
9988병원,병원,126.624867,36.8925428,8,0,0,0,8
BH병원,병원,129.0846565,35.1350712,2,0,0,0,2
C&J미래여성병원,병원,128.6343924,35.2576778,3,1,0,0,2
CNA서울아동병원,병원,128.6808909,35.2208386,5,0,0,0,5
JS노송병원,병원,126.6720379,37.5066915,4,0,0,0,4
MS재건병원,병원,128.6048764,35.8718515,12,1,0,0,11
M병원,병원,128.5662102,35.889414,6,0,0,0,6
SCH서울아동병원,병원,128.4291756,34.8600648,6,3,0,0,3
SG삼성조은병원,병원,127.1091339,36.8188831,12,1,0,0,11
St.(세인트)요셉병원,병원,126.694678,37.4093154,4,0,0,0,4
W(더블유)여성병원,병원,126.6811652,37.4509653,18,0,0,0,18
WE병원,병원,126.4438719,33.2860937,1,0,0,0,1
W여성병원,병원,128.6339776,35.8708473,7,0,0,0,7
the큰병원,병원,128.6487951,35.2396798,7,0,0,0,7
가나병원,병원,126.9199365,35.1619603,2,0,0,0,2
가자연세병원,병원,126.9165989,37.5689576,8,0,0,0,8
가자연세병원,병원,126.7178017,37.6188926,7,0,0,0,7
가제트병원,병원,126.9113533,35.1333715,3,0,0,0,3
가천대부속 동인천길병원,병원,126.6313078,37.473775,1,0,0,0,1
가톨릭병원,병원,127.390352,36.3364138,6,0,0,0,6
감청수병원,병원,128.8958783,35.2279404,2,0,0,0,2
강남고려병원,병원,126.9567943,37.4856349,10,1,0,0,9
강남베드로병원,병원,127.0396045,37.4856196,24,1,0,0,23
강남병원,병원,127.720675,37.86439,9,0,0,0,9
강남병원,병원,127.697625,34.9317763,7,0,0,0,7
강남병원,병원,126.8914783,35.1448981,3,1,0,0,2
강남병원,병원,128.663437,35.88299,6,0,0,0,6
강남병원,병원,128.3422082,36.1243775,9,0,0,0,9
강남수병원,병원,127.087577,37.5034091,4,0,0,0,4
강남여성병원,병원,127.0275151,37.2767458,9,0,0,0,9
강남을지대학교병원,병원,127.0286438,37.5194124,0,0,0,0,0
강남제이에스병원,병원,127.0347193,37.5155109,5,0,0,0,5
강남지인병원,병원,127.03505,37.5127891,8,0,0,0,8
강남초이스병원,병원,126.9496075,37.4813393,2,0,0,0,2
강남초이스정형외과병원,병원,127.0484885,37.5047776,7,0,0,0,7
강남힘찬병원,병원,127.1099004,37.5075981,8,0,0,0,8
강동미즈여성병원,병원,127.1281043,37.5376183,15,0,0,0,15
강동병원,병원,128.9782686,35.0896455,7,0,0,0,7
강동연세병원,병원,127.1266323,37.5467696,4,0,0,0,4
강릉율곡병원,병원,128.8740332,37.7864983,5,0,0,0,5
강병원,병원,127.2046956,37.8981468,8,0,0,0,8
강병원,병원,128.3254109,34.9741871,9,1,0,0,8
강북21세기병원,병원,127.0856597,37.5940481,6,0,0,0,6
강북연세병원,병원,127.0754877,37.6191956,11,0,0,0,11
강북우리들병원,병원,127.022638,37.6425442,7,0,0,0,7
강북으뜸병원,병원,127.0262554,37.6254074,4,0,0,0,4
강서바른세상병원,병원,126.8116185,37.5661467,2,0,0,0,2
강서병원,병원,129.2748341,35.5554402,1,0,0,0,1
강서송도병원,병원,126.8427872,37.5585273,11,0,0,0,11
강서연세병원,병원,126.8748085,37.5493061,1,0,0,0,1
강서필병원,병원,126.8443479,37.5330123,3,0,0,0,3
강서힘찬병원,병원,126.8406822,37.5592035,11,0,0,0,11
강원도 재활병원,병원,127.7411821,37.9036749,4,0,0,0,4
강화병원,병원,126.4961098,37.7424362,4,0,0,0,4
개나리소아청소년과병원,병원,128.92243,35.0981159,3,0,0,0,3
거제아동병원,병원,128.6262587,34.8828723,5,0,0,0,5
거제중앙병원,병원,128.6222499,34.8866515,2,0,0,0,2
거창적십자병원,병원,127.9087378,35.6867599,14,3,0,0,11
건강만세365병원,병원,129.0313991,35.1031753,10,0,0,0,10
건누리병원,병원,126.7467267,37.6772497,6,0,0,0,6
건양의료재단 김안과병원,병원,126.9015978,37.5196826,59,0,0,9,50
경북재활병원,병원,128.6959574,36.6539126,1,0,0,0,1
경희리틀병원,병원,128.8132149,35.1710522,1,0,0,0,1
경희병원,병원,128.9768377,35.0735355,6,0,0,0,6
계룡의료재단 계룡병원,병원,127.2569649,36.2726641,0,0,0,0,0
계명대학교의과대학부속경주동산병원,병원,129.2094788,35.845537,9,0,0,0,9
고덕탑병원,병원,127.0449137,37.0478873,7,1,0,0,6
고도일병원,병원,127.0227848,37.5070301,12,0,0,0,12
고든병원,병원,126.8348265,37.3189133,6,0,0,0,6
고려병원,병원,127.0838273,36.2043687,2,1,0,0,1
고성성심병원,병원,128.3724194,35.0808378,7,0,0,0,7
고양정신병원,병원,126.8545927,37.7114709,6,0,0,0,6
고양휴메디병원,병원,126.8759284,37.6477459,4,1,0,0,3
고운손병원,병원,127.3825516,36.3518082,2,0,0,0,2
고운여성병원,병원,126.7852249,37.49406335,6,0,0,0,6
고은빛여성병원,병원,127.1393602,37.5341574,13,0,0,0,13
고은여성병원,병원,126.6471018,37.4600706,12,0,0,0,12
고흥윤호21병원,병원,127.2816085,34.6066624,5,0,0,0,5
공군교육사 기지병원,병원,128.1441565,35.2039755,16,0,0,0,16
공군항공우주의료원,병원,127.5268465,36.5795744,28,1,0,0,27
공생병원,병원,128.6946955,36.3544615,3,0,0,0,3
공안과병원,병원,127.1260542,37.5339302,12,0,0,0,12
공주현대병원,병원,127.132975,36.468885,7,0,0,0,7
곽여성병원,병원,127.1304647,37.4407883,20,1,0,0,19
곽호순병원,병원,128.5639439,35.8630549,4,0,0,0,4
광개토병원,병원,128.593836,35.866117,4,0,0,0,4
광명21세기병원,병원,126.8563518,37.484667,8,0,0,0,8
광명기대찬병원,병원,126.8656956,37.4760885,4,0,0,0,4
광명새움병원,병원,126.8820235,37.4481983,11,0,0,0,11
광산수완미래아동병원,병원,126.8180639,35.1755833,9,0,0,0,9
광산하나아동병원,병원,126.825603,35.1910415,4,0,0,0,4
광주21세기병원,병원,126.8180648,35.1759038,6,0,0,0,6
광주OK병원,병원,126.8144887,35.1904251,5,1,0,0,4
광주굿모닝병원,병원,126.8713449,35.1848499,12,0,0,0,12
광주동림병원,병원,126.867728,35.1715224,9,0,0,0,9
광주미래병원,병원,126.9330223,35.1808271,5,1,0,0,4
광주바로병원,병원,126.8598457,35.2065115,8,0,0,0,8
광주백병원,병원,126.9045889,35.1384083,3,0,0,0,3
광주삼성병원,병원,126.8667287,35.171524,1,0,0,0,1
광주새우리병원,병원,126.8813934,35.1536997,18,0,0,0,18
광주소망병원,병원,126.9308713,35.1216609,5,1,0,0,4
광주열린병원,병원,126.798888,35.13779,8,0,0,0,8
광주제일병원,병원,126.901338,35.13714,3,0,0,0,3
광주참병원,병원,126.8972433,35.1337738,4,0,0,0,4
광주혜원병원,병원,126.9114893,35.1337447,0,0,0,0,0
광탄현대병원,병원,126.8496889,37.7792667,1,0,0,0,1
광혜병원,병원,127.0647911,37.5081452,11,0,0,0,11
괴정어린이병원,병원,128.9941683,35.0985409,3,0,0,0,3
구례병원,병원,127.4639375,35.2159096,6,0,0,0,6
구미현대병원,병원,128.3396375,36.1127404,4,0,0,0,4
구트병원,병원,128.6779428,35.2283755,6,0,0,0,6
국군강릉병원,병원,128.8310611,37.8687639,28,0,0,0,28
국군고양병원,병원,126.8981741,37.7193759,36,0,0,1,35
국군구리병원,병원,127.1194764,37.6101181,22,0,0,0,22
국군대구병원,병원,128.7881899,35.9022312,19,0,0,0,19
국군대전병원,병원,127.3497314,36.3983507,61,0,0,0,61
국군양주병원,병원,127.0416361,37.8509959,68,0,0,0,68
국군춘천병원,병원,127.7328073,37.9386922,38,0,0,0,38
국군포천병원,병원,127.3103582,37.9159818,32,0,0,0,32
국군함평병원,병원,126.589626,35.1845454,14,0,0,0,14
국군홍천병원,병원,127.9970272,37.8047491,35,0,0,0,35
국립교통재활병원,병원,127.5187698,37.4895693,11,0,0,0,11
국립마산병원,병원,128.5663469,35.1688619,12,1,0,0,11
국립목포병원,병원,126.43725,34.8273833,8,0,2,0,6
국립부곡병원,병원,128.6120258,35.435493,11,1,0,5,5
국립소록도병원,병원,127.121363,34.511625,9,3,0,0,6
국립재활원,병원,127.0105162,37.6388781,35,2,0,15,18
국립정신건강센터,병원,127.0856522,37.5650897,48,1,0,16,31
국립춘천병원,병원,127.7664334,37.7713654,15,0,0,8,7
국민병원,병원,127.238339,37.6500996,5,0,0,0,5
국제나은병원,병원,126.9257149,37.392901,14,0,0,0,14
군포성모병원,병원,126.9412757,37.346579,2,0,0,0,2
굳센병원,병원,128.6216097,35.8672814,6,0,0,0,6
굿닥터튼튼병원,병원,126.946796,37.3896267,14,0,0,0,14
굿모닝내과병원,병원,128.6086416,35.2572591,6,0,0,0,6
굿모닝대홍병원,병원,128.866368,35.2297004,3,0,0,0,3
굿모닝병원,병원,128.5740875,35.8530071,18,0,0,0,18
굿모닝병원,병원,129.218775,35.8561685,9,0,0,0,9
굿모닝병원,병원,129.319775,35.535,20,1,0,0,19
굿병원,병원,127.1439397,37.5972925,7,0,0,0,7
굿힐링병원,병원,129.0344244,35.1025962,2,0,0,0,2
그레이스병원,병원,126.7851165,37.6447672,23,0,0,0,23
그린재활의학과병원,병원,126.9646697,37.3960855,2,0,0,0,2
근로복지공단 대구병원,병원,128.564015,35.9508261,9,0,0,0,9
근로복지공단 동해병원,병원,129.106078,37.5321225,19,0,0,0,19
근로복지공단 정선병원,병원,128.6587349,37.3830727,7,2,0,0,5
글로리병원,병원,126.7353913,37.5071663,9,1,0,0,8
글로벌365mc병원,병원,126.7009869,37.4463303,4,2,0,0,2
글로벌삼육오엠씨병원,병원,127.3782047,36.3501606,8,2,0,0,6
글로벌튼튼병원,병원,127.433248,36.3578747,12,0,0,0,12
금강아산병원(재단법인 아산사회복지재단),병원,126.9818432,37.5176285,10,0,0,0,10
금병원,병원,127.2094289,37.5368198,2,0,0,0,2
금정어린이병원,병원,129.0922161,35.2451243,4,0,0,0,4
기대플러스병원,병원,126.7363864,37.7287093,6,0,0,0,6
기둥병원,병원,126.8637502,37.3021141,7,0,0,0,7
기쁨병원,병원,127.033745,37.4899185,22,0,0,0,22
김&정해운대병원,병원,129.174951,35.1719523,2,0,0,0,2
김상수병원,병원,127.1214759,37.2933672,3,0,0,0,3
김앤권병원,병원,127.9442994,36.9874645,5,0,0,0,5
김정수여러분병원,병원,127.0325991,37.5072251,3,0,0,0,3
김제병원,병원,126.8821973,35.8053917,5,0,0,0,5
김제우석병원,병원,126.8801124,35.8071936,10,1,0,0,9
김찬병원,병원,127.02643,37.2626422,11,0,0,0,11
김취열기념의료재단 프라임병원,병원,128.0387416,35.2149147,3,0,0,0,3
김포경희25병원,병원,126.6265891,37.6435542,1,0,0,0,1
김포다조은병원,병원,126.6001707,37.6895829,5,0,0,0,5
김포아이제일병원,병원,126.6265891,37.6435542,5,0,0,0,5
김포에이치(H)병원,병원,126.6232145,37.6429143,4,1,0,0,3
김포예사랑병원,병원,126.6993083,37.6227606,2,0,0,0,2
김포한누리병원,병원,126.5686573,37.700559,5,1,0,0,4
김해굿모닝병원,병원,128.8947089,35.2347564,8,0,0,0,8
김해바른병원,병원,128.8824348,35.2302953,6,0,0,0,6
김해사랑병원,병원,128.8585459,35.2379922,6,0,0,0,6
김해아동병원,병원,128.8673786,35.2364501,4,0,0,0,4
꿈나무아동병원,병원,128.7240208,35.8353411,4,0,0,0,4
꿈크는아이병원,병원,127.0556762,36.7759658,4,0,0,0,4
나노병원,병원,128.7578198,35.4840221,5,0,0,0,5
나누리병원,병원,127.034005,37.5203058,20,0,0,0,20
나누리병원,병원,126.6906588,37.4510812,14,0,0,0,14
나누리수원병원,병원,127.0482227,37.2739388,23,1,0,0,22
나다의료재단소망병원,병원,126.7298946,37.4974592,0,0,0,0,0
나래병원,병원,126.6741466,37.4160147,4,0,0,0,4
나르샤병원,병원,129.0845992,35.2190565,6,0,0,0,6
나리여성병원,병원,126.7128146,37.6219556,14,0,0,0,14
나무정원여성병원,병원,127.0484957,37.8227762,11,0,0,0,11
나은병원,병원,126.9685105,35.9587996,7,0,0,0,7
나주빛가람병원,병원,126.7999306,35.0355378,5,1,0,0,4
날개병원,병원,127.0295094,37.5816364,5,0,0,0,5
남기세병원,병원,127.137523,37.5346934,10,0,0,0,10
남산내과·신경과병원,병원,129.0910651,35.2555301,4,0,0,0,4
남산병원,병원,128.5819142,35.8614509,7,0,0,0,7
남악아동병원,병원,126.4644406,34.8111948,4,0,0,0,4
남양주21세기병원,병원,127.1772238,37.6587384,3,0,0,0,3
남양주백병원,병원,127.1876577,37.7112839,9,0,0,0,9
남원병원,병원,127.3865418,35.4160345,3,0,0,0,3
남원성일병원,병원,127.3695781,35.4755294,5,0,0,0,5
남천병원,병원,126.9259562,37.3646746,12,2,0,0,10
내안에병원,병원,127.9489161,37.3341896,3,0,0,0,3
노체리안드리자애병원,병원,127.3517012,37.884895,2,0,0,0,2
누네안과병원,병원,127.0510148,37.5009718,23,0,0,2,21
누네안과병원,병원,128.6018543,35.8636991,16,0,0,0,16
누리엘병원,병원,127.4324003,36.3479322,5,0,0,0,5
뉴 엔젤병원,병원,126.8797358,35.15764988,1,0,0,0,1
뉴라이프병원,병원,128.6166679,35.89834,4,0,0,0,4
뉴스타트병원,병원,127.1194989,37.4991188,6,0,0,0,6
뉴연세여성병원,병원,126.899972,37.4552178,3,0,0,0,3
늘시원한위대항병원,병원,128.6114256,35.9007956,2,0,0,0,2
늘열린성모병원,병원,128.5995271,35.862057,0,0,0,0,0
늘찬병원,병원,127.0988923,37.595185,6,0,0,0,6
늘푸른병원,병원,126.8401206,37.6636208,2,0,0,0,2
다나병원,병원,127.0404341,37.6550487,4,0,0,0,4
다나여성병원,병원,127.4957789,36.6722246,8,0,0,0,8
다빈치병원,병원,127.3855534,36.3455503,10,1,0,0,9
다사랑병원,병원,127.1278624,35.8008774,2,1,0,0,1
다산의료소비자생활협동조합정석소아청소년과병원,병원,127.2027443,37.7206568,6,0,0,0,6
다우리재활병원,병원,127.1349787,36.8175663,6,1,0,0,5
다원병원,병원,126.7373373,37.5439747,4,1,0,0,3
다인병원,병원,127.0274625,37.2918733,11,2,0,0,9
다인이비인후과병원,병원,126.7088392,37.4876012,10,0,0,0,10
다일천사병원,병원,127.0477019,37.5765433,1,0,0,0,1
단골병원,병원,129.0919619,35.2476664,4,0,0,0,4
단디병원,병원,129.0271709,35.338612,9,0,0,0,9
달려라병원,병원,127.1409415,37.5340867,12,0,0,0,12
달서미즈맘병원,병원,128.5213432,35.8133158,8,0,0,0,8
달서여성메디파크병원,병원,128.5301345,35.8499074,7,0,0,0,7
담소유병원,병원,127.0346344,37.5148664,10,0,0,0,10
담양사랑병원,병원,126.9825737,35.3152982,8,1,0,0,7
당진성모병원,병원,126.6275207,36.8932142,5,0,0,0,5
대구병원,병원,128.5487917,35.9132465,4,0,0,0,4
대구보건대학교병원,병원,128.557684,35.9427484,12,1,0,0,11
대구삼선병원,병원,128.5492256,35.9356228,7,1,0,0,6
대구시티병원,병원,128.619563,35.8934785,11,0,0,0,11
대구정신병원,병원,128.5094375,35.8053917,6,0,0,0,6
대구차여성병원,병원,128.5746746,35.8407877,2,0,0,0,2
대동병원,병원,128.643888,35.876424,6,0,0,0,6
대명의료재단서대구병원,병원,128.55295,35.8697737,8,0,0,0,8
대성병원,병원,126.9283901,35.1618276,2,0,0,0,2
대연성모병원,병원,129.098745,35.1481294,2,0,0,0,2
대우아동병원,병원,128.6918078,34.8935336,2,0,0,0,2
대전광역시립정신병원,병원,127.3064375,36.3320583,4,0,0,0,4
대전본병원,병원,127.3429573,36.3526557,7,0,0,0,7
대전센텀병원,병원,127.3898386,36.3594842,11,0,0,0,11
대전우리병원,병원,127.3840565,36.3437038,21,0,0,0,21
대전코젤병원,병원,127.3266814,36.3008979,5,0,0,0,5
대중병원,병원,126.9165164,35.1526982,15,0,0,0,15
대찬병원,병원,126.7025088,37.4497384,14,0,0,0,14
대한민국재향소방동우회 희망나눔병원,병원,126.6659833,37.4446655,2,1,0,0,1
대한민국정형외과병원,병원,129.0674535,35.2054534,2,0,0,0,2
대항병원,병원,126.9878957,37.475653,26,0,0,0,26
더 드림 병원,병원,126.7221293,37.5349576,8,0,0,0,8
더 바른병원,병원,127.2073656,37.5367723,3,0,0,0,3
더 조은병원,병원,128.3262443,34.9736716,5,0,0,0,5
더(the)큰병원,병원,128.8696365,35.2302022,9,0,0,0,9
더강한병원,병원,129.1774893,35.3212622,5,0,0,0,5
더나은병원,병원,126.8654811,35.2073447,2,0,0,0,2
더나은병원,병원,128.5395095,35.8505271,8,0,0,0,8
더본병원,병원,126.9814925,37.4825532,5,0,0,0,5
더불어척병원,병원,126.8194435,35.1911954,2,2,0,0,0
더블유여성병원,병원,127.3840565,36.3437038,11,0,0,0,11
더블유여성병원,병원,126.8231139,35.189681,15,0,0,0,15
더서울병원,병원,127.0165047,37.5942338,7,0,0,0,7
더세움병원,병원,127.1592407,35.8321305,3,1,0,0,2
더열린병원,병원,128.5434894,35.8520239,8,0,0,0,8
더와이즈황병원,병원,126.842373,37.5422451,7,0,0,0,7
더웰병원,병원,127.0754725,37.255323,13,0,0,0,13
더이로운병원,병원,129.0370054,35.3495312,3,0,0,0,3
더조은병원,병원,127.1378112,37.465111,7,1,0,0,6
더플러스병원,병원,127.2562315,37.4095319,5,0,0,0,5
도봉병원,병원,127.0438257,37.6687732,10,0,0,0,10
동두천중앙성모병원,병원,127.0539842,37.9089379,19,0,0,0,19
동래성모병원,병원,129.0801814,35.2032587,2,0,0,0,2
동래아동병원,병원,129.1002145,35.1970495,3,0,0,0,3
동래우리들병원,병원,129.0902291,35.2001744,6,0,0,0,6
동마산병원,병원,128.5783375,35.2338346,10,0,0,0,10
동백성루카병원,병원,127.1506635,37.2657659,2,1,0,0,1
동산병원,병원,126.9619798,35.9368344,2,0,0,0,2
동서울병원,병원,127.0256173,37.5760507,4,0,0,0,4
동안산병원,병원,126.8529776,37.3358857,11,1,0,0,10
동양의료재단연세사랑병원,병원,128.7010514,35.1287636,5,0,0,0,5
동인외과병원,병원,128.6334538,35.8701275,3,0,0,0,3
동탄드림병원,병원,127.1107422,37.2076402,1,0,0,0,1
동탄성모병원,병원,127.1072583,37.1674494,4,0,0,0,4
동탄시티병원,병원,127.0626243,37.2084782,11,0,0,0,11
두손병원,병원,126.8124002,37.3328263,7,0,0,0,7
두정이진병원,병원,127.1305743,36.8261217,7,0,0,0,7
드림솔병원,병원,127.0946206,35.8298064,5,0,0,0,5
든든한병원,병원,126.7559266,37.6991063,9,0,0,0,9
든든한병원,병원,128.6124647,35.8804847,10,0,0,0,10
디딤병원,병원,126.7830116,37.4868851,5,0,0,0,5
디앤에프병원,병원,127.0814897,37.601489,3,0,0,0,3
라본병원,병원,127.1050937,37.6003119,6,0,0,0,6
라엘마음병원,병원,126.8289315,37.6275514,3,0,0,0,3
라온휴병원,병원,126.8420198,37.5177576,2,0,0,0,2
라파엘병원,병원,128.5918167,35.8604098,9,0,0,0,9
러스크서울병원,병원,127.1438135,37.5480936,4,1,0,0,3
로이병원,병원,126.9690288,37.6068376,5,1,0,0,4
로즈마리병원,병원,128.5577901,35.9431996,13,0,0,0,13
로체스터재활병원,병원,127.0477609,37.7142761,6,2,0,0,4
리더스병원,병원,127.1277443,37.5369609,3,0,0,0,3
리더스아산병원,병원,127.0066575,36.7875552,3,1,0,0,2
리더스재활의학병원,병원,128.5745386,35.85664,2,0,0,0,2
리드힐병원,병원,126.9164512,37.6000012,7,0,0,0,7
리본병원,병원,126.8630394,37.4974484,5,1,0,0,4
리스본병원,병원,129.0810539,35.184791,5,0,0,0,5
리하트병원,병원,127.0886789,37.7321175,3,0,0,0,3
린병원,병원,127.0661911,37.3005661,9,1,0,0,8
린여성병원,병원,127.0699469,37.5723194,11,0,0,0,11
마더즈병원,병원,129.089574,35.2004254,3,0,0,0,3
마디병원,병원,127.0511821,37.5176901,7,0,0,0,7
마디사랑병원,병원,127.4904561,36.6381738,7,0,0,0,7
마디세상병원,병원,127.0782087,37.6098944,6,0,0,0,6
마디손정형외과병원,병원,127.1064083,36.8064515,5,0,0,0,5
마디정형외과병원,병원,126.4206704,34.8035707,2,0,0,0,2
마디탄탄병원,병원,128.5367388,35.8190375,3,0,0,0,3
마디편한병원,병원,126.7745263,37.7648794,3,0,0,0,3
마라톤정형외과병원,병원,127.3874471,36.3493481,6,0,0,0,6
마미안여성병원,병원,128.7362817,35.8267476,6,0,0,0,6
마스터플러스병원,병원,127.0443275,37.723607,6,1,0,0,5
마인드병원,병원,127.3822551,36.3541034,3,0,0,0,3
말바우엘병원,병원,126.9216714,35.1706943,2,2,0,0,0
맑은샘센텀병원,병원,128.6889141,34.8920965,3,0,0,0,3
맑은수병원,병원,127.065592,37.5638762,6,1,0,0,5
맘스여성병원,병원,129.3509421,35.5666963,10,0,0,0,10
맘존여성병원,병원,129.216825,35.8488987,4,0,0,0,4
메가병원,병원,128.8038855,35.1913311,13,1,0,0,12
메드렉스병원,병원,127.0299718,37.5149534,7,0,0,0,7
메드윌병원,병원,129.0909617,35.2585111,7,0,0,0,7
메디아이여성병원,병원,127.067062,37.6564674,11,0,0,0,11
메디인병원,병원,126.7748346,37.7579969,21,0,0,0,21
메디힐병원,병원,126.827886,37.5372291,18,1,0,0,17
메타메디병원,병원,127.0588372,37.2172596,2,0,0,0,2
메트로병원,병원,128.6258107,35.2608496,16,0,0,0,16
메트로적추병원,병원,129.1075375,35.141148,6,1,0,0,5
멘토스병원,병원,127.061626,37.5665552,4,0,0,0,4
명지아동병원,병원,128.9188877,35.0978297,3,0,0,0,3
모두병원,병원,126.7260052,37.3995689,10,0,0,0,10
모란여성병원,병원,128.6806996,35.2206324,8,0,0,0,8
모아산부인과병원,병원,126.903468,35.1339675,11,0,0,0,11
모태안여성병원,병원,127.4451705,36.6168636,15,0,0,0,15
목동제일여성병원,병원,126.8518725,37.5230563,3,0,0,0,3
목동힘찬병원,병원,126.8768282,37.5249722,22,0,0,0,22
목포미래병원,병원,126.4270375,34.82305,5,0,0,0,5
목포미즈아이병원,병원,126.432175,34.8088583,12,0,0,0,12
목포아동병원,병원,126.4232899,34.8117435,4,0,0,0,4
목포예향병원,병원,126.402574,34.7911852,3,0,0,0,3
목포우리병원,병원,126.4269251,34.8061287,3,0,0,0,3
목포장문외과병원,병원,126.4227425,34.8046237,3,0,0,0,3
목포한사랑병원,병원,126.42365,34.80585,13,0,0,0,13
목포현대병원,병원,126.4010345,34.8156733,13,0,0,0,13
무궁화의료소비자생활협동조합 뉴베스트병원,병원,127.9356241,36.9557793,3,1,0,0,2
무룹병원,병원,128.567863,35.196874,4,0,0,0,4
무안제일병원,병원,126.482106,34.9933869,3,0,0,0,3
무지개병원,병원,126.8989732,35.1526573,7,0,0,0,7
무지개아동병원,병원,128.591876,35.8887906,4,0,0,0,4
무척조은병원,병원,126.781014,37.8640146,7,0,0,0,7
문산중앙병원,병원,126.78325,37.8542481,9,1,0,0,8
문성병원,병원,128.570425,35.8487654,5,1,0,0,4
문영래 정형외과병원,병원,126.8573393,35.1458428,4,0,0,0,4
문화여성병원,병원,126.8830334,35.1744235,12,0,0,0,12
미래드림여성병원,병원,126.9486559,37.4820463,2,0,0,0,2
미래로병원,병원,129.004449,35.2113115,13,0,0,0,13
미래로병원,병원,128.5497778,35.843757,5,0,0,0,5
미래병원,병원,129.0975758,35.1977612,10,0,0,0,10
미래병원,병원,127.000466,35.8071656,7,0,0,0,7
미래아동병원,병원,126.910713,35.133749,10,0,0,0,10
미래아동병원,병원,129.4217917,35.5398165,3,0,0,0,3
미래아동병원,병원,128.0875217,35.1852449,3,0,0,0,3
미래아이여성병원,병원,128.9634824,35.1058718,14,0,0,0,14
미래어린이병원,병원,128.972435,35.1310308,3,1,0,0,2
미래여성병원,병원,129.0223781,35.153604,13,0,0,0,13
미래여성병원,병원,127.3777541,36.3485152,7,0,0,0,7
미래여성병원,병원,128.5368061,35.8512054,17,0,0,0,17
미래한국병원,병원,127.0161428,36.7830015,6,0,0,0,6
미르아동병원,병원,127.1259462,35.80263763,6,0,0,0,6
미르아이병원,병원,128.7484543,35.4837441,3,1,0,0,2
미르피아여성병원,병원,127.1026879,35.8032907,8,0,0,0,8
미병원,병원,127.0312234,37.5234744,1,0,0,0,1
미사튼튼병원,병원,127.1930378,37.5615554,10,0,0,0,10
미성의료재단 아름다운병원,병원,127.8831925,37.6881194,2,0,0,0,2
미소래병원,병원,126.7747625,37.75732,6,0,0,0,6
미소안재활병원,병원,128.5840827,35.2409671,2,1,0,0,1
미주병원,병원,128.5469505,35.8491476,4,0,0,0,4
미즈여성병원,병원,127.3853747,36.3433025,9,0,0,0,9
미즈여성아동병원,병원,127.5222126,34.9599395,14,0,0,0,14
미즈제일여성병원,병원,127.344198,36.352516,13,0,0,0,13
미즈피아병원,병원,126.851155,35.1500559,20,0,0,0,20
미추홀재활전문병원,병원,126.7064997,37.4537458,9,1,0,0,8
민들레병원,병원,126.7092125,37.788925,5,0,0,0,5
민병원,병원,127.0272803,37.6226164,8,0,0,0,8
민정형외과병원,병원,126.9163672,37.4044536,3,0,0,0,3
민트병원,병원,127.1159205,37.4862139,9,0,0,0,9
믿음병원,병원,126.9000279,35.7991425,3,1,0,0,2
밀양병원,병원,128.7486481,35.4871692,7,0,0,0,7
밀양우리병원,병원,128.7661847,35.47613753,3,0,0,0,3
바로병원,병원,126.6875736,37.4505351,15,0,0,0,15
바로본병원,병원,127.0075372,37.302217,5,0,0,0,5
바로선병원,병원,127.0421237,37.6603375,15,0,0,0,15
바로세움병원,병원,127.3895146,36.3492979,8,0,0,0,8
바른길병원,병원,129.1217477,35.2059254,5,0,0,0,5
바른마디병원,병원,127.1625749,37.4452633,13,0,0,0,13
바른병원,병원,129.0249139,35.0976617,10,0,0,0,10
바른병원,병원,127.4503344,37.2737375,9,1,0,0,8
바른본병원,병원,127.0771832,37.5535238,6,0,0,0,6
바른생각병원,병원,127.3778318,36.3595058,12,0,0,0,12
바른세상병원,병원,127.1268211,37.4103088,26,0,0,0,26
바른유병원,병원,128.3326958,36.1310285,12,0,0,0,12
박원욱병원,병원,129.1133756,35.1569388,8,0,0,0,8
박종혁믿음병원,병원,127.1064292,35.8160303,5,0,0,0,5
박진영병원,병원,126.8293109,37.3127957,7,0,0,0,7
반도병원,병원,128.0882554,35.1918013,20,1,0,0,19
반도정형외과병원,병원,127.010117,37.5560086,6,1,0,0,5
밝은눈안과병원,병원,129.0513538,35.1579106,14,0,0,0,14
밝은마음병원,병원,126.834746,35.0272979,4,0,0,0,4
밝은안과21병원,병원,126.8844886,35.1608879,10,0,0,0,10
방병원,병원,127.0750336,37.6184022,12,0,0,0,12
방화병원,병원,126.814012,37.5732419,4,0,0,0,4
백두병원,병원,127.9967417,38.1225794,2,0,0,0,2
백두병원,병원,128.5175383,35.8115218,8,0,0,0,8
백성병원,병원,127.0286624,37.2678065,13,2,0,0,11
버팀병원,병원,127.0739679,37.1492927,10,1,0,0,9
버팀병원,병원,127.0558468,37.2452099,10,0,0,0,10
베드로병원,병원,127.7353695,37.8659705,3,0,0,0,3
베스트병원,병원,127.5108541,34.9412513,2,1,0,0,1
베스트병원,병원,128.5508639,35.8549392,5,0,0,0,5
베스트수병원,병원,128.5804086,35.2342748,4,0,0,0,4
베스트아이들병원,병원,127.0724115,37.2053061,5,0,0,0,5
베스티안우송병원,병원,127.4389764,36.329087,4,0,0,0,4
베이직병원,병원,127.0139101,37.6574714,5,0,0,0,5
보광병원,병원,128.5416682,35.8367614,17,0,0,0,17
보라안과병원,병원,126.8527076,35.1512682,9,0,0,0,9
본드림병원,병원,126.7959241,37.4792816,4,0,0,0,4
본바른병원,병원,129.0152647,35.3269943,10,0,0,0,10
본베스트병원,병원,127.9301513,37.33490576,6,0,0,0,6
본병원,병원,126.9210344,37.400699,5,0,0,0,5
본병원,병원,127.1155231,35.8251651,8,0,0,0,8
본서부병원,병원,126.922605,37.6007663,8,0,0,0,8
본정형외과병원,병원,127.1256369,36.7997947,8,0,0,0,8
봄내병원,병원,127.733988,37.87629,4,0,0,0,4
봄병원,병원,129.0724027,35.18889382,3,1,0,0,2
봄빛병원,병원,126.9545214,37.3902239,26,0,0,0,26
봉키병원,병원,127.3437349,36.3526462,5,0,0,0,5
봉화해성병원,병원,128.7334719,36.8916343,5,0,0,0,5
부산마이크로병원,병원,129.0910163,35.251732,5,0,0,0,5
부산맘아동병원,병원,128.9689973,35.1050515,4,0,0,0,4
부산본병원,병원,128.9698235,35.1062804,16,0,0,0,16
부산성소병원,병원,129.0858015,35.1351066,14,0,0,0,14
부산아동병원,병원,129.0914604,35.1348542,4,0,0,0,4
부산우리들병원,병원,129.0855308,35.2208431,17,0,0,0,17
부산제2항운병원,병원,129.0596264,35.1466816,5,0,0,0,5
부산큰병원,병원,129.0261687,35.1528239,8,0,0,0,8
부안21세기병원,병원,126.7371381,35.7303874,2,0,0,0,2
부안드림병원,병원,126.7410797,35.7280239,2,1,0,0,1
부영병원,병원,128.9840178,35.1412205,2,0,0,0,2
부천21세기병원,병원,126.7751655,37.4835935,7,0,0,0,7
부천서울어린이병원,병원,126.757882,37.5065047,3,0,0,0,3
부천중앙병원,병원,126.8044446,37.5271807,6,1,0,0,5
부평중앙병원,병원,126.72165,37.4997096,2,0,0,0,2
북구미래아동병원,병원,126.8995611,35.1903283,8,0,0,0,8
북구우리들병원,병원,126.923397,35.1711211,8,0,0,0,8
분당21세기병원,병원,127.1239211,37.3864199,3,0,0,0,3
분당러스크재활전문병원,병원,127.1063223,37.3640047,5,0,0,0,5
분당베스트병원,병원,127.1298637,37.4121577,5,1,0,0,4
분당에이치병원,병원,127.1114019,37.3768278,11,0,0,0,11
분당제일여성병원,병원,127.1218166,37.3869717,29,0,0,0,29
분당척병원,병원,127.1292726,37.4128879,18,0,0,0,18
분홍빛으로병원,병원,128.6033949,35.8671931,9,0,0,0,9
브래덤병원,병원,126.7033598,37.4508775,5,0,0,0,5
브이아이씨365병원,병원,126.7637605,37.7292709,3,0,0,0,3
비에비스나무병원,병원,127.0324057,37.5095709,13,0,0,0,13
비엔날레병원,병원,126.8905233,35.1813608,2,1,0,0,1
비엔피병원,병원,127.3398823,36.3544734,4,0,0,0,4
빛고을여성병원,병원,126.8736234,35.2103889,21,0,0,0,21
빛으로병원,병원,128.8039955,36.5370165,3,1,0,0,2
빠른병원,병원,127.1097102,37.5074505,3,0,0,0,3
뿌리병원,병원,127.48671,36.6568453,17,0,0,0,17
사단법인 부산의료선교회 세계로병원,병원,129.0647391,35.1944931,19,0,0,0,19
사람이소중한병원,병원,129.3238783,35.5555862,3,0,0,0,3
사랑샘병원,병원,126.9173791,35.134759,5,0,0,0,5
사랑의병원,병원,126.9562934,37.4796227,6,1,0,0,5
사랑의병원,병원,127.1125191,37.397366,7,2,0,0,5
사랑플러스병원,병원,127.1436234,37.5466916,11,0,0,0,11
사상스마트병원,병원,128.9905043,35.15507642,2,0,0,0,2
사직부산아동병원,병원,129.0652494,35.2009008,4,0,0,0,4
사천동희병원,병원,128.0943639,35.0883667,4,0,0,0,4
사천서울아동병원,병원,128.0914359,35.0801695,4,0,0,0,4
사하아동병원,병원,128.9777379,35.0788382,3,1,0,0,2
사회복지법인 동향원 부설 반구대병원,병원,129.168867,35.6180119,4,0,0,0,4
사회복지법인 성가소비녀회 성가복지병원,병원,127.0307411,37.6069387,3,0,0,0,3
사회복지법인 성신원 동대전정신병원,병원,127.47105,36.323025,2,0,0,0,2
사회복지법인 성재원 성세병원,병원,127.345252,36.357733,2,1,0,0,1
사회복지법인 여수애양병원,병원,127.6246393,34.8432905,10,1,0,0,9
사회복지법인내원 마하재활병원,병원,128.6011926,34.8068312,2,0,0,0,2
사회복지법인천성원 대전한일병원,병원,127.4130158,36.3667834,3,0,0,0,3
사회복지법인천성원신탄진한일병원,병원,127.4240766,36.4340606,9,0,0,0,9
사회복지법인한마음 한마음정신병원,병원,127.3342367,36.2245807,2,0,0,0,2
산본제일병원,병원,126.9311405,37.3636555,27,0,0,0,27
삼남재활의학과병원,병원,127.1253023,35.8170175,2,0,0,0,2
삼성미래여성병원,병원,126.8404114,37.4912147,11,0,0,0,11
삼성본병원,병원,127.0614731,37.1909363,9,0,0,0,9
삼성아동병원,병원,128.8689797,35.2602669,4,0,0,0,4
삼성합천병원,병원,128.1633048,35.5664432,8,0,0,0,8
삼일정풍병원,병원,128.5653253,35.1926023,6,0,0,0,6
삼척병원,병원,129.1723135,37.4369274,6,0,0,0,6
삼천포제일병원,병원,127.1141857,37.2007172,16,2,0,0,14
삼호제일병원,병원,126.3793425,34.7471946,1,0,0,0,1
상남굿모닝내과병원,병원,128.6798691,35.2206377,4,0,0,0,4
상생병원,병원,126.8797298,35.1576732,2,1,0,0,1
상주제일병원,병원,128.0032625,36.4376763,3,0,0,0,3
상쾌한병원,병원,129.1134692,35.1682093,6,0,0,0,6
상쾌한항구병원,병원,129.3606487,36.0266118,4,0,0,0,4
새건병원,병원,126.6879018,37.4576327,7,0,0,0,7
새금산병원,병원,127.4961495,36.1040385,6,0,0,0,6
새길병원,병원,126.9046993,37.5216832,4,0,0,0,4
새나래병원,병원,126.8640533,35.2070104,8,0,0,0,8
새동산병원,병원,128.5724085,35.8724543,5,0,0,0,5
새로나병원,병원,127.1694765,36.8127736,3,0,0,0,3
새마음병원,병원,127.825575,37.265117,2,0,0,0,2
새미래병원,병원,126.9072605,35.1485737,2,0,0,0,2
새봄여성병원,병원,126.7036933,37.5062303,8,0,0,0,8
새부산병원,병원,129.0391841,35.1183022,6,0,0,0,6
새빛병원,병원,127.4483056,36.6174862,3,0,0,0,3
새손병원,병원,127.4097835,36.3242823,6,0,0,0,6
새숨병원,병원,127.1159227,37.48621427,2,0,0,0,2
새우리남산병원,병원,129.09212,35.2652794,6,0,0,0,6
새운암병원,병원,126.881407,35.174826,1,0,0,0,1
새움병원,병원,126.8976554,37.4730529,19,0,0,1,18
새천년병원,병원,129.215248,35.844685,4,0,0,0,4
새통영병원,병원,128.4207171,34.8653483,25,1,0,0,24
새하동병원,병원,127.7385792,35.0830571,4,1,0,0,3
새한솔병원,병원,128.7346988,35.5061747,0,0,0,0,0
새항운병원,병원,129.079581,35.1829112,6,0,0,0,6
새희망병원,병원,126.7114993,37.4648587,5,0,0,0,5
새희망병원,병원,126.852678,35.151019,2,1,0,0,1
새힘병원,병원,129.0687456,35.2070108,2,1,0,0,1
샘물호스피스병원,병원,127.4140095,37.1386687,1,0,0,0,1
생생병원,병원,126.7931248,37.4819751,11,0,0,0,11
서귀포열린병원,병원,126.5654013,33.254527,8,0,0,0,8
서대구대동병원,병원,128.539041,35.8512861,7,0,0,0,7
서안병원,병원,128.5561464,35.8370337,3,0,0,0,3
서울나우병원,병원,127.1202711,37.3840714,13,0,0,0,13
서울나우병원,병원,126.973198,37.3959793,9,0,0,0,9
서울나은병원,병원,127.0387505,37.5785713,6,0,0,0,6
서울대정병원,병원,127.1080081,36.8115949,11,0,0,0,11
서울대효병원,병원,126.9012036,37.4544278,4,1,0,0,3
서울대효병원,병원,126.835767,37.5511213,4,1,0,0,3
서울동인병원,병원,127.0280199,37.5651103,0,0,0,0,0
서울메트로병원,병원,129.1261222,35.20474,3,0,0,0,3
서울명병원,병원,127.0379409,37.5773943,5,0,0,0,5
서울바른병원,병원,126.9199903,37.5002105,10,0,0,0,10
서울바른세상병원,병원,126.8977443,37.4712845,8,0,0,0,8
서울바른척도병원,병원,126.7164765,37.4564126,5,0,0,0,5
서울병원,병원,126.9307507,37.608851,6,0,0,0,6
서울병원,병원,127.1247204,37.5039282,13,2,0,0,11
서울병원,병원,126.3779694,34.8018786,1,1,0,0,0
서울병원,병원,128.5768809,35.231655,10,0,0,0,10
서울본병원,병원,126.9116761,37.4816126,3,0,0,0,3
서울본브릿지병원,병원,127.0424459,37.4924788,6,0,0,0,6
서울새싹병원,병원,128.8148319,35.1728085,4,0,0,0,4
서울석병원,병원,127.1240445,37.4937452,6,0,0,0,6
서울선병원,병원,127.0936395,37.5986318,3,0,0,0,3
서울성모안과병원,병원,127.0458487,37.2745068,8,0,0,0,8
서울송도병원,병원,127.0081792,37.551174,49,1,0,0,48
서울숭인병원,병원,127.0203571,37.5740802,3,0,0,0,3
서울스타병원,병원,126.8362212,37.5532563,7,0,0,0,7
서울아동병원,병원,129.0143496,35.2359746,2,0,0,0,2
서울아동병원,병원,127.4398947,36.6330354,3,0,0,0,3
서울아동병원,병원,128.4254906,36.1041302,3,0,0,0,3
서울아동병원,병원,128.1203686,35.1929042,4,0,0,0,4
서울아동병원,병원,128.8000135,35.194715,3,0,0,0,3
서울아동병원,병원,128.6984031,35.156137,3,0,0,0,3
서울아동병원,병원,128.6210351,34.8891741,4,0,0,0,4
서울아동병원,병원,129.2661807,35.5524703,3,0,0,0,3
서울아동병원,병원,128.5044424,35.2323777,3,0,0,0,3
서울아이병원,병원,129.0287588,35.3357242,2,0,0,0,2
서울양병원,병원,127.1401353,37.5340876,17,0,0,0,17
서울어린이병원,병원,127.0731005,37.1434245,6,0,0,0,6
서울여성병원,병원,126.7515952,37.5053385,30,0,0,0,30
서울여성병원,병원,126.721239,37.6188986,5,0,0,0,5
서울여성병원,병원,127.380596,36.3454266,12,0,0,0,12
서울연세병원,병원,127.0361651,37.5606334,2,0,0,0,2
서울우리병원,병원,127.4282747,36.624256,3,0,0,0,3
서울우리병원,병원,127.1234641,36.8242886,6,0,0,0,6
서울유병원,병원,127.0295532,37.61607246,4,0,0,0,4
서울이룸병원,병원,126.7173261,37.4563165,1,0,0,0,1
서울이비인후과병원,병원,128.6798691,35.2206377,5,0,0,0,5
서울재활병원,병원,126.9075445,37.6051727,6,0,0,0,6
서울제일병원,병원,126.9317125,36.9880513,4,0,0,0,4
서울제일병원,병원,127.0623529,37.0797908,10,0,0,0,10
서울좋은병원,병원,127.02929,37.6192886,3,0,0,0,3
서울지구병원,병원,126.9828483,37.5880587,33,0,0,0,33
서울척병원,병원,127.0293037,37.6088446,31,0,0,0,31
서울척병원,병원,127.0486693,37.7336074,14,0,0,0,14
서울척탑병원,병원,126.8740722,37.6512276,7,0,0,0,7
서울큰나무병원,병원,126.8380461,37.5444824,4,0,0,0,4
서울특별시 북부병원,병원,127.1076807,37.6043947,11,1,0,0,10
서울특별시서북병원,병원,126.9044499,37.60421,26,5,0,0,21
서울특별시서울의료원강남분원,병원,127.0664019,37.5123691,2,0,0,0,2
서울특별시어린이병원,병원,127.0689282,37.4557936,20,5,0,0,15
서울특별시은평병원,병원,126.923851,37.594014,20,1,0,6,13
서울패미리병원,병원,129.0053024,35.3106227,4,1,0,0,3
서울프라임병원,병원,127.0635902,37.5408267,8,0,0,0,8
서울프라임병원,병원,127.1099304,36.8212772,6,0,0,0,6
서울현대병원,병원,127.0285199,37.6402555,13,0,0,0,13
서울휴병원,병원,126.8548456,35.1507515,4,0,0,0,4
서재곤링커병원,병원,127.1120907,37.5095167,7,0,0,0,7
서호병원,병원,129.1155158,35.1521285,12,1,0,0,11
석정웰파크병원,병원,126.7375996,35.4313984,12,0,0,0,12
선수촌병원,병원,127.0792026,37.5115631,7,0,0,0,7
선한목자병원,병원,127.0361559,37.5015778,6,0,0,0,6
선힐링병원,병원,129.1806836,35.3201076,2,0,0,0,2
성가병원,병원,129.0590278,35.1420664,3,0,0,0,3
성모가톨릭병원,병원,128.2014003,36.5977367,1,0,0,0,1
성모샘병원,병원,127.0419261,37.6654889,4,0,0,0,4
성모여성병원,병원,128.5360294,35.8181325,4,0,0,0,4
성모윌병원,병원,126.6939436,37.4593803,5,0,0,0,5
성모윌병원,병원,127.1282926,37.4344532,13,0,0,0,13
성모척관병원,병원,127.0065011,37.2920512,8,0,0,0,8
성보병원,병원,126.8834905,35.1705437,2,1,0,0,1
성북우리아이들병원,병원,127.0293592,37.6068633,14,0,0,0,14
성서병원,병원,128.4932161,35.8510548,7,1,0,0,6
성신병원,병원,127.0263276,37.624988,4,0,0,0,4
성심병원,병원,128.73499,36.5844526,3,0,0,0,3
성심중앙병원,병원,126.92765,36.9840808,6,0,0,0,6
성주제일병원,병원,128.2917486,35.9190891,3,0,0,0,3
성지병원,병원,126.8928939,37.4766009,5,1,0,0,4
세계로병원,병원,126.818566,35.1912399,17,0,0,0,17
세광병원,병원,129.0908657,35.4992739,6,0,0,0,6
세명재활의학병원,병원,129.3577088,36.0135548,1,0,0,0,1
세민병원,병원,128.5640417,35.8716728,5,1,0,0,4
세바른병원,병원,127.0153417,37.4859524,7,0,0,0,7
세솟는정형외과병원,병원,126.9371026,37.5523808,3,0,0,0,3
세우리병원,병원,127.3783636,36.3554541,7,1,0,0,6
세웅병원,병원,129.104025,35.21456,22,2,0,0,20
세인트마리여성병원,병원,126.95388,37.275402,12,0,0,0,12
세일병원,병원,129.0446395,35.1249181,11,1,0,0,10
세종새싹병원,병원,127.2763991,36.47149638,6,0,0,0,6
세종여주병원,병원,127.6253003,37.301484,21,0,0,0,21
세창의료재단우성여성병원,병원,126.8320124,37.3184583,11,0,0,0,11
세화병원,병원,129.0711844,35.2059213,7,0,0,0,7
세화병원,병원,126.8615342,37.3020559,12,3,0,0,9
세흥병원,병원,129.0632074,35.1637714,17,0,0,0,17
센텀병원,병원,127.07105,37.753899,9,0,0,0,9
센텀사랑의병원,병원,129.1172252,35.1682815,3,0,0,0,3
센텀아동병원,병원,129.1406828,35.1678259,4,0,0,0,4
센텀힐병원,병원,129.1253789,35.1852958,5,0,0,0,5
센트럴병원,병원,127.9302984,37.343921,0,0,0,0,0
센트럴아동병원,병원,127.0717648,37.2045705,5,0,0,0,5
센트로병원,병원,126.8051448,37.5179555,3,0,0,0,3
소망하나로병원,병원,126.8726989,35.1464102,4,0,0,0,4
소화병원(의료법인 소화병원),병원,126.9686587,37.5537604,5,0,0,0,5
솔병원,병원,126.8173869,37.572376,5,0,0,0,5
송정사랑병원,병원,126.7973974,35.1341716,12,0,0,0,12
송파미소병원,병원,127.1458927,37.4932277,3,0,0,0,3
송호욱병원,병원,127.0643748,37.1694653,5,0,0,0,5
수병원,병원,127.0298682,37.2803205,10,1,0,0,9
수병원,병원,127.101448,35.8140052,13,0,0,0,13
수사랑병원,병원,126.9380426,35.9441225,4,0,0,0,4
수성아동병원,병원,128.6163638,35.854039,5,0,0,0,5
수성중동병원,병원,128.6133979,35.8494111,8,1,0,0,7
수성한미병원,병원,128.6193791,35.859182,5,1,0,0,4
수앤수병원,병원,126.9127298,37.1146439,4,0,0,0,4
수여성병원,병원,126.9762125,37.251247,6,1,0,0,5
수영어린이병원,병원,129.1144799,35.1657592,4,0,0,0,4
수완센트럴병원,병원,126.82926,35.1854818,17,0,0,0,17
수원우노병원,병원,127.0216256,37.2585415,1,0,0,0,1
수원중앙병원,병원,127.0226132,37.2600575,13,2,0,0,11
수원한국병원,병원,127.0047486,37.3039314,6,0,0,0,6
순병원,병원,129.0916903,35.2364803,16,0,0,0,16
순천센텀병원,병원,127.5322069,34.9534399,2,0,0,0,2
순천우리병원,병원,127.5160041,34.9526177,10,0,0,0,10
순천하나병원,병원,127.5098884,34.9406011,12,0,0,0,12
순천희망병원,병원,127.4879548,34.9473527,5,0,0,0,5
쉬즈메디병원,병원,127.0290997,37.2743973,17,0,0,0,17
스마일본병원,병원,127.1147039,37.0016056,7,0,0,0,7
스마튼병원,병원,126.7761125,37.5050082,7,0,0,0,7
슬기로운병원,병원,126.8662421,35.11844631,1,1,0,0,0
시엘병원,병원,126.885313,35.161507,6,0,0,0,6
시영의료재단 영동병원,병원,128.5156027,35.3089491,3,0,0,0,3
시온여성병원,병원,127.0766569,37.2527041,20,0,0,0,20
시원병원,병원,126.8489119,35.1526608,8,0,0,0,8
시원항병원,병원,129.0041452,35.2123249,4,0,0,0,4
시지열린아동병원,병원,128.7052211,35.8403433,6,0,0,0,6
시흥배곧병원,병원,126.7281991,37.3671682,1,0,0,0,1
시흥솔병원,병원,126.7907593,37.4439728,2,0,0,0,2
신대온누리병원,병원,127.5500227,34.9335929,3,0,0,0,3
신도시이진병원,병원,127.1073563,36.7897009,7,0,0,0,7
신마산서울아동병원,병원,128.560946,35.1817615,4,0,0,0,4
신병원,병원,126.9837136,37.2513487,7,0,0,0,7
신세계 여성병원,병원,128.613625,35.897882,14,0,0,0,14
신세계로병원,병원,128.4303084,34.8437265,2,0,0,0,2
신세계병원,병원,127.0078078,35.7448657,6,0,0,0,6
신여성병원,병원,127.0405638,37.7379619,8,0,0,0,8
신일병원,병원,127.0218527,37.6348037,10,0,0,0,10
신창사랑병원,병원,126.8504658,35.1830865,3,0,0,0,3
신창의료재단 원주에이치병원,병원,127.9517624,37.3837998,3,0,0,0,3
신촌연세병원,병원,126.9337712,37.5525983,16,1,0,0,15
신태백병원,병원,128.9901551,37.1611471,4,0,0,0,4
실로암안과병원,병원,126.8622776,37.5460226,15,0,0,0,15
실버힐스병원,병원,127.2348242,37.6466749,3,0,0,0,3
심정병원,병원,126.9156675,37.4823639,7,0,0,0,7
써지탑병원,병원,127.3799449,36.3541369,5,0,0,0,5
씨에스나무병원,병원,127.6493055,34.7606281,4,1,0,0,3
씨엔씨율량병원,병원,127.4936331,36.6648701,5,1,0,0,4
씨엠맘삼성병원,병원,126.9283432,35.1322279,6,0,0,0,6
아가페의료재단 시티병원,병원,126.9767992,37.3502814,14,0,0,0,14
아람메디컬병원,병원,127.0299175,36.7741961,2,0,0,0,2
아름제일병원,병원,126.8905378,37.5054584,14,0,0,0,14
아벤스병원,병원,126.9568884,37.4039684,3,0,0,0,3
아산사회복지재단 보성아산병원,병원,127.1045625,34.7758583,7,0,0,0,7
아이(i)서울병원,병원,129.0417146,35.0877774,6,2,0,0,4
아이꿈터아동병원,병원,128.5218076,35.8155397,3,0,0,0,3
아이디병원,병원,127.0241884,37.51768,39,5,0,0,34
아이마음아동병원,병원,129.3574932,35.6425369,4,0,0,0,4
아이맘아동병원,병원,126.8745074,35.2105067,7,0,0,0,7
아이맘어린이병원,병원,127.1529071,37.6227086,4,0,0,0,4
아이본병원,병원,127.1093162,36.8193151,11,1,0,0,10
아이사랑병원,병원,128.8940037,35.2295021,2,0,0,0,2
아이엠병원,병원,127.4885891,36.62292179,9,1,0,0,8
아이원병원,병원,126.8849787,37.4479271,9,0,0,0,9
아이웰어린이병원,병원,127.4967108,36.6705335,9,0,0,0,9
아이윤병원,병원,129.3268217,35.5582223,4,1,0,0,3
아이퍼스트아동병원,병원,126.8544021,35.1527378,9,0,0,0,9
아주다남병원,병원,126.9954474,37.2965695,3,0,0,0,3
아주병원,병원,126.911107,35.146153,0,0,0,0,0
아주재활병원,병원,128.966083,35.1057921,1,0,0,0,1
아카시아병원,병원,126.8985537,37.4680986,4,0,0,0,4
안강병원,병원,127.0449869,37.4970908,9,3,0,0,6
안강중앙병원,병원,129.2169,35.9928346,3,0,0,0,3
안산21세기병원,병원,126.8317939,37.3307826,12,0,0,0,12
안산신우병원,병원,126.8124503,37.3003786,5,0,0,0,5
안산튼튼병원,병원,126.8569572,37.3078687,12,0,0,0,12
안성동인병원,병원,127.2668375,37.0052083,3,0,0,0,3
알엠병원,병원,126.6675789,37.446775,5,1,0,0,4
앙즈로여성병원,병원,127.1069654,36.8104741,12,0,0,0,12
양덕서울아동병원,병원,128.5804086,35.2342748,3,0,0,0,3
양병원,병원,127.2052106,37.6335493,17,1,0,0,16
양산아이들병원,병원,129.0169034,35.3272281,3,0,0,0,3
양산제일병원,병원,129.0272477,35.3159985,12,1,0,0,11
양주소망병원,병원,127.054113,37.8444956,2,0,0,0,2
양주예쓰병원,병원,127.0645197,37.8377793,14,3,0,0,11
양주우리병원,병원,126.9881848,37.8168607,2,0,0,0,2
양평병원,병원,127.5035413,37.4938653,15,3,0,0,12
어울림병원,병원,126.9209727,37.5133082,9,0,0,0,9
에덴메디여성병원,병원,127.0340167,37.2493456,12,0,0,0,12
에덴병원,병원,126.9297008,35.1755212,20,0,0,0,20
에디스여성병원,병원,128.9778658,35.1015033,6,0,0,0,6
에스병원,병원,128.5364241,35.8378803,2,0,0,0,2
에스병원(S병원),병원,129.0700406,35.078274,13,0,0,0,13
에스알씨(SRC)재활병원,병원,127.2871428,37.4200418,4,0,0,0,4
에스앤유서울병원,병원,126.8339126,37.5594527,8,0,0,0,8
에스앤케이병원,병원,127.3825798,36.3487003,5,0,0,0,5
에스엘서울병원,병원,127.0855116,37.80044573,5,0,0,0,5
에스케이제이병원,병원,126.9334534,35.1613965,10,0,0,0,10
에이스병원,병원,126.8292601,37.3209937,11,0,0,0,11
에이치엠병원,병원,129.3110064,35.5355076,10,0,0,0,10
에이치제이매그놀리아국제병원,병원,127.5213618,37.6911585,12,1,0,0,11
에이치큐브병원,병원,127.0410736,37.6583201,15,0,0,0,15
엔에이치미래아동병원,병원,126.7846457,35.0171245,5,0,0,0,5
엔탑이비인후과병원,병원,126.8988872,35.1906309,9,0,0,0,9
엘리움병원,병원,129.1757451,35.168815,2,0,0,0,2
엘앤더슨병원,병원,129.0167399,35.1213821,1,0,0,0,1
엠마오사랑병원,병원,127.137104,35.8126263,3,0,0,0,3
엠블병원,병원,127.3384552,36.3329729,10,0,0,0,10
엠앤비여성병원,병원,126.7348015,37.5365393,8,0,0,0,8
엠플러스병원,병원,127.1526482,37.2763622,3,0,0,0,3
여성메디파크병원,병원,128.6246584,35.8545829,11,0,0,0,11
여성아이병원,병원,129.3619762,36.054346,27,0,0,0,27
여성아이병원,병원,128.5295804,35.8160806,12,0,0,0,12
여수백병원,병원,127.7033674,34.7520043,9,1,0,0,8
여수한국병원,병원,127.6749639,34.7612841,15,1,0,0,14
여주세민병원,병원,127.5661224,37.1785609,4,0,0,0,4
여주순영병원,병원,127.5661224,37.1785609,5,0,0,0,5
연세건우병원,병원,126.9516001,37.4810595,11,1,0,0,10
연세광혜병원,병원,127.4847229,34.960412,4,0,0,0,4
연세나무병원,병원,127.1084976,36.8140265,9,0,0,0,9
연세노블병원,병원,126.9244756,37.6040714,3,0,0,0,3
연세다움병원,병원,127.0948978,36.993589,6,0,0,0,6
연세더바른병원,병원,126.6235663,37.6453256,5,0,0,0,5
연세마두병원,병원,126.7788084,37.6519039,4,0,0,0,4
연세메디하임병원,병원,127.8450875,37.3261,5,0,0,0,5
연세무척나은병원,병원,127.0809144,37.5562714,9,0,0,0,9
연세바로척병원,병원,127.0649225,37.5444078,7,0,0,0,7
연세바른병원,병원,126.9805813,37.4843925,7,0,0,0,7
연세본병원,병원,127.087993,37.5796409,5,0,0,0,5
연세본사랑병원,병원,126.8083771,37.4846571,11,0,0,0,11
연세사랑모아여성병원,병원,126.8606071,37.5063641,8,0,0,0,8
연세사랑병원,병원,126.9866983,37.4767222,21,0,0,0,21
연세새로운병원,병원,127.6328965,37.2898595,9,1,0,0,8
연세서울병원,병원,126.7772085,37.6538167,4,0,0,0,4
연세서울병원,병원,126.863135,37.2884903,4,0,0,0,4
연세스타병원,병원,127.1464467,37.441324,4,0,0,0,4
연세슬기병원,병원,127.0306881,37.5642758,5,0,0,0,5
연세오케이병원,병원,127.0475442,37.73339031,11,1,0,0,10
연세유병원,병원,126.6248969,37.6455901,3,0,0,0,3
연세제일병원,병원,126.7895455,37.5199203,3,0,0,0,3
연세척병원,병원,129.0497862,35.1575893,5,0,0,0,5
연세프라임병원,병원,127.1088557,37.2967488,9,0,0,0,9
연세하나병원,병원,126.7318489,37.6122316,6,0,0,0,6
연세한강병원,병원,126.944877,37.5394563,8,0,0,0,8
연세항맥병원,병원,126.7621686,37.6705815,3,0,0,0,3
연제일신병원,병원,129.0828772,35.1856693,14,0,0,0,14
연합정형외과병원,병원,127.3916456,36.3400711,7,0,0,0,7
열경의료재단동부허병원,병원,128.6356375,35.8725071,6,0,0,0,6
열린내과병원,병원,126.6329053,36.8969688,4,0,0,0,4
열린아동병원,병원,128.5357361,35.8495868,5,0,0,0,5
열린중앙병원,병원,128.4465229,35.7291721,3,0,0,0,3
열린큰병원,병원,128.5696732,35.8618148,7,1,0,0,6
염창환병원,병원,127.0137857,37.4949979,3,0,0,0,3
영광병원,병원,127.9919165,37.3358882,3,0,0,0,3
영덕아산병원,병원,129.4023435,36.5236797,9,0,0,0,9
영동병원,병원,127.0585634,37.5632524,5,0,0,0,5
영주가톨릭병원,병원,128.6250354,36.8267423,4,0,0,0,4
영주기독병원,병원,128.621122,36.8251886,9,0,0,0,9
영주삼봉병원,병원,128.6197875,36.8132917,3,0,0,0,3
영주자인병원,병원,128.6056004,36.8159306,4,0,0,0,4
영진의료재단 엠아이병원,병원,128.8008805,35.1907487,4,1,0,0,3
예담소아청소년과병원,병원,128.1481662,35.1759134,3,0,0,0,3
예사랑아동병원,병원,126.8985624,35.1202426,5,1,0,0,4
예산명지병원,병원,126.834262,36.713651,8,1,0,0,7
예손병원,병원,126.7874542,37.502585,23,0,0,0,23
예스병원,병원,126.8834138,37.4916644,8,0,0,0,8
예스병원,병원,127.1093331,37.3299162,14,0,0,0,14
예울병원,병원,127.6804198,34.7479571,5,0,0,0,5
예인병원,병원,126.7268514,37.3980272,4,0,0,0,4
예인여성병원,병원,128.7068969,35.1442172,4,0,0,0,4
예일병원,병원,127.1217107,36.7930564,6,0,0,0,6
예작병원,병원,127.0422533,37.492378,6,1,0,0,5
예천권병원,병원,128.458942,36.6574115,11,0,0,0,11
오병원,병원,127.5166666,34.9520687,6,0,0,0,6
오산세종병원,병원,127.067211,37.1276081,3,0,0,0,3
오성병원,병원,129.0704205,35.1713273,11,0,0,0,11
오정본병원,병원,126.8044705,37.5276411,8,0,0,0,8
오창중앙병원,병원,127.4296895,36.706771,3,0,0,0,3
오케이병원,병원,126.73371,37.5282655,4,0,0,0,4
오케이참병원,병원,127.1380644,37.609432,8,2,0,0,6
온고을재활의학과병원,병원,127.1398265,35.8122363,3,0,0,0,3
온누리병원,병원,126.817513,37.341815,14,0,0,0,14
온누리아동병원,병원,126.987136,35.952536,5,0,0,0,5
온누리안과병원,병원,127.1222133,35.8223179,6,0,0,0,6
온빛병원,병원,128.7026453,35.8783043,2,0,0,0,2
온세병원,병원,127.2356564,37.6458624,3,0,0,0,3
온양우리아동병원,병원,129.2900434,35.4070998,1,0,0,0,1
올곧은병원,병원,128.634442,35.8713487,3,1,0,0,2
올림피아병원,병원,126.720023,37.4569861,4,1,0,0,3
올림픽병원,병원,127.0980123,37.5027549,6,0,0,0,6
올바로병원,병원,127.0043999,37.4862375,6,0,0,0,6
올바른서울병원,병원,127.1412951,37.5420953,10,0,0,0,10
완도대성병원,병원,126.735575,34.3171667,6,1,0,0,5
용원중앙병원,병원,128.8222908,35.0996094,2,0,0,0,2
우리들병원,병원,127.0497016,37.5190451,27,0,0,0,27
우리들병원,병원,126.8512545,35.1483228,13,0,0,0,13
우리들병원,병원,128.601194,35.8694296,16,0,0,0,16
우리병원,병원,127.024924,37.2637244,6,0,0,0,6
우리병원,병원,128.5373652,35.83682,13,0,0,0,13
우리병원,병원,128.492916,35.3873737,7,0,0,0,7
우리아동병원,병원,126.859268,35.1308952,6,0,0,0,6
우리아동병원,병원,129.1169684,35.567066,2,0,0,0,2
우리아이아동병원,병원,128.8107912,35.100497,1,0,0,0,1
우리여성병원,병원,128.8670151,35.238182,7,0,0,0,7
우리척병원,병원,127.1245932,36.7939071,4,0,0,0,4
우리호병원,병원,127.0959034,37.322227,5,0,0,0,5
우먼피아여성병원,병원,127.0701079,37.7488555,7,0,0,0,7
우암병원,병원,126.9330176,35.1834101,7,1,0,0,6
운정와이즈병원,병원,126.7588583,37.7290287,15,0,0,0,15
울들병원,병원,129.3120313,35.5412877,11,0,0,0,11
울산H병원,병원,129.340714,35.5583544,6,0,0,0,6
울산기독병원,병원,129.2068875,35.7123596,4,0,0,0,4
울산미즈병원,병원,129.270908,35.5523152,9,0,0,0,9
울산아동병원,병원,129.3498979,35.6328933,3,0,0,0,3
울산우리병원,병원,129.3252804,35.5424902,5,0,0,0,5
울산청맥외과병원,병원,129.3371409,35.5389443,2,0,0,0,2
울진군의료원,병원,129.4095737,36.9926961,24,1,0,0,23
웅상센텀힐병원,병원,129.1537471,35.3813023,10,1,0,0,9
웅상좋은아이병원,병원,129.1537569,35.3817811,2,0,0,0,2
워크재활의학과병원,병원,129.084186,35.186752,9,1,0,0,8
원당연세병원,병원,126.8353685,37.6551119,4,0,0,0,4
원병원,병원,126.6896782,37.4480547,1,0,0,0,1
원병원,병원,127.3043735,37.6519274,13,2,0,0,11
원주그린병원,병원,127.9470996,37.3477207,1,0,0,0,1
원주불로병원,병원,127.9444625,37.3562546,4,1,0,0,3
원주성모병원,병원,127.9844989,37.3936695,4,0,0,0,4
원주센텀병원,병원,127.9302031,37.3337964,6,0,0,0,6
원주연세병원,병원,127.9493133,37.3472041,3,0,0,0,3
원주우리병원,병원,127.9434,37.373665,2,0,0,0,2
원주카톨릭병원,병원,127.941138,37.35399,2,1,0,0,1
원흥아이제일병원,병원,126.8740722,37.6512276,6,0,0,0,6
원힐링병원,병원,126.8908053,35.1444954,3,2,0,0,1
웰니스병원,병원,129.0858962,35.1890247,9,1,0,0,8
웰봄병원,병원,127.0640749,37.1706269,7,0,0,0,7
웰키즈아동병원,병원,128.4206995,36.1069776,3,0,0,0,3
웰키즈아동병원,병원,128.5348565,35.8185682,4,0,0,0,4
웰튼병원,병원,126.8370699,37.5540112,4,0,0,0,4
웰하이여성아동병원,병원,128.9039488,35.0804516,6,0,0,0,6
위대한탄생여성병원,병원,129.0801387,35.1848624,8,0,0,0,8
위대항병원,병원,129.0929573,35.1353763,5,0,0,0,5
위드병원,병원,128.574201,35.8606006,5,0,0,0,5
위드여성병원,병원,129.3480072,35.5454856,5,0,0,0,5
위례본병원,병원,127.1325586,37.46642864,3,1,0,0,2
위례재활병원,병원,127.1367046,37.4655966,2,0,0,0,2
윈산부인과병원,병원,127.0810315,37.2666844,5,0,0,0,5
유광사여성병원,병원,126.8388825,37.5435838,8,0,0,0,8
유나이티드병원,병원,127.0351301,37.4849802,4,0,0,0,4
유나이티드병원,병원,127.1862171,37.554348,5,0,0,0,5
유니온병원,병원,128.6037924,35.8723056,7,0,0,0,7
유로병원,병원,127.1039388,35.8193818,4,0,0,0,4
유성병원,병원,129.3267765,35.5589804,2,0,0,0,2
유앤미 병원,병원,127.1222362,35.8254991,1,0,0,0,1
유앤제이병원,병원,126.6275722,37.6540901,4,0,0,0,4
육군훈련소 지구병원,병원,127.0997009,36.1108953,21,0,0,0,21
윤강병원,병원,127.0534468,37.24631211,3,0,0,0,3
윤병원,병원,128.6205885,35.2619779,3,1,0,0,2
윤서병원,병원,127.1395516,37.6052186,13,2,0,0,11
윤호병원,병원,127.0344243,37.5288504,5,0,0,0,5
율하꿈나무병원,병원,128.8143922,35.1712567,3,0,0,0,3
으뜸병원,병원,127.128633,37.4310405,3,0,0,0,3
으뜸병원,병원,127.1305473,35.7868679,2,0,0,0,2
으뜸병원,병원,128.5893341,35.8700686,7,0,0,0,7
은병원,병원,126.924412,35.1717017,15,0,0,0,15
은평연세병원,병원,126.9174726,37.6146994,11,2,0,0,9
은혜병원,병원,126.6845858,37.5455729,8,0,0,0,8
은혜병원,병원,128.5764824,35.20163243,5,1,0,0,4
을지소아청소년과병원,병원,127.436106,36.3675587,4,1,0,0,3
의)상원의료재단부평힘찬병원,병원,126.7302152,37.4924402,20,0,0,0,20
의)청십자의료재단 행복한병원,병원,129.0700561,35.1497984,3,0,0,0,3
의령병원,병원,128.25865,35.3185917,4,0,0,0,4
의령사랑병원,병원,128.2832085,35.3261451,3,0,0,0,3
의료법인 갑을의료재단 갑을구미병원,병원,128.4027543,36.107467,6,0,0,0,6
의료법인 계요의료재단 계요병원,병원,126.9811648,37.3479536,17,0,0,4,13
의료법인 관주의료재단 정다운병원,병원,126.6989244,35.9715942,7,0,0,0,7
의료법인 길정의료재단 길정병원,병원,128.99575,35.132207,3,0,0,0,3
의료법인 나누리병원,병원,126.8367214,37.537373,12,0,0,0,12
의료법인 대광의료재단 괴산성모병원,병원,127.7841803,36.8156252,14,0,0,0,14
의료법인 대아의료재단 시흥한도병원,병원,126.7842734,37.3775313,0,0,0,0,0
의료법인 대전미래의료재단 대전하나병원,병원,127.4157668,36.3193607,0,0,0,0,0
의료법인 덕산의료재단 한마음병원,병원,128.0979487,34.9350153,8,0,0,0,8
의료법인 동인재단 동부병원,병원,127.4177781,35.7788515,0,0,0,0,0
의료법인 명신의료재단 괴산서부병원,병원,127.7927591,36.8067939,5,0,0,0,5
의료법인 명원의료재단 파인힐병원,병원,129.0735147,35.6114419,4,2,0,0,2
의료법인 명지원의료재단 김제중앙병원,병원,126.8774375,35.7958583,0,0,0,0,0
의료법인 모세의료재단 모세병원,병원,126.7110153,35.9700944,2,0,0,0,2
의료법인 미나의료재단 여수문화병원,병원,127.6992534,34.7459131,9,0,0,0,9
의료법인 밝은마음의료재단 워크런병원,병원,127.350565,36.3553311,3,0,0,0,3
의료법인 백천의료재단 바로본병원,병원,128.6151998,35.8684263,14,0,0,0,14
의료법인 사랑나무의료재단 서수원병원,병원,126.977986,37.2414531,4,0,0,0,4
의료법인 상원의료재단 강북힘찬병원,병원,127.033394,37.645661,13,0,0,0,13
의료법인 상원의료재단 부산힘찬병원,병원,129.0871847,35.2014658,15,0,0,0,15
의료법인 상원의료재단 창원힘찬병원,병원,128.6059276,35.2559176,12,0,0,0,12
의료법인 생명사랑의료재단 밀양윤병원,병원,128.7556256,35.4846367,18,0,1,0,17
의료법인 서명의료재단 세명병원,병원,128.7371689,35.8263331,34,0,0,0,34
의료법인 서해병원,병원,126.6876024,36.08452,5,0,0,0,5
의료법인 성누가의료재단 성누가병원,병원,126.9302534,37.6104968,5,1,0,0,4
의료법인 성세의료재단 영종국제병원,병원,126.5646769,37.4885356,7,0,0,0,7
의료법인 성심의료재단 양구성심병원,병원,127.9912806,38.1045972,6,1,0,0,5
의료법인 성지의료재단 성지병원,병원,127.9542213,37.345533,28,6,0,0,22
의료법인 세경의료재단 새빛안과병원,병원,126.7857545,37.6442729,18,0,0,3,15
의료법인 세광의료재단 성모안과병원,병원,129.1407304,35.1674944,19,0,0,3,16
의료법인 센텀의료재단 부산센텀병원,병원,129.114558,35.1662609,20,1,0,0,19
의료법인 송암의료재단 마이크로병원,병원,127.4503643,36.6340262,11,1,0,0,10
의료법인 송은의료재단 울산시티e병원,병원,129.3592838,35.5819111,5,1,0,0,4
의료법인 송인의료재단 대성그린병원,병원,128.8409486,36.4864183,6,0,0,0,6
의료법인 신드림의료재단 중앙유병원,병원,126.6027521,36.3588612,3,1,0,0,2
의료법인 신생의료재단 센트럴병원,병원,129.0090811,35.2113366,17,0,0,0,17
의료법인 신의료재단 김해삼승병원,병원,128.882332,35.2266689,10,1,0,0,9
의료법인 심연의료재단 세명병원,병원,128.8135186,35.10126793,6,0,0,0,6
의료법인 아인의료재단 서울여성병원,병원,126.6893497,37.4515221,29,0,0,0,29
의료법인 안동의료재단 용상안동병원,병원,128.7437806,36.5600981,4,0,0,0,4
의료법인 안흥의료재단 영남병원,병원,129.3841793,36.0824265,3,0,0,0,3
의료법인 양구우리병원,병원,127.9860829,38.1025665,2,0,0,0,2
의료법인 여덕의료재단 증평병원,병원,127.5754091,36.7774869,2,1,0,0,1
의료법인 영재의료재단 큰솔2병원,병원,128.987223,35.1436636,4,0,0,0,4
의료법인 온그룹의료재단 일어나걸어라온병원,병원,129.0498801,35.157851,3,1,0,0,2
의료법인 우람의료재단 건병원,병원,128.1034774,35.1796791,0,0,0,0,0
의료법인 우리아이들 의료재단 우리아이들병원,병원,126.8824677,37.5021356,15,2,0,0,13
의료법인 유진의료재단 바른몸병원,병원,126.7304114,35.9746856,0,0,0,0,0
의료법인 은혜와감사의료재단 향남스마트병원,병원,126.9110534,37.1147838,4,0,0,0,4
의료법인 의명의료재단 대전병원,병원,127.4177625,36.362623,3,0,0,0,3
의료법인 의명의료재단 마음편한병원,병원,127.4235224,36.3250269,5,0,0,0,5
의료법인 의명의료재단 보은성모병원,병원,127.7245719,36.4864704,4,0,0,0,4
의료법인 이도의료재단 남해병원,병원,127.8942506,34.8464281,9,0,0,0,9
의료법인 이루의료재단 임실병원,병원,127.2832951,35.6156937,2,1,0,0,1
의료법인 인당의료재단 구포부민병원,병원,128.9904573,35.1983115,7,1,0,0,6
의료법인 인덕의료재단 복주회복병원,병원,128.667479,36.5804214,1,0,0,0,1
의료법인 인봉의료재단 영등포병원,병원,126.8958262,37.5268545,15,1,0,0,14
의료법인 인해의료재단 화명장시원병원,병원,129.0111527,35.2345977,1,0,0,0,1
의료법인 일민의료재단 세강병원,병원,128.551688,35.836849,14,0,0,0,14
의료법인 일암의료재단 고려병원,병원,127.0743811,35.9097787,2,0,0,0,2
의료법인 자강의료재단 초록아이아동병원,병원,129.2066107,35.843083,2,0,0,0,2
의료법인 자산의료재단 단양서울병원,병원,128.3690824,36.9874859,0,0,0,0,0
의료법인 자혜의료재단 영천제이병원,병원,128.9530599,35.97693905,4,0,0,0,4
의료법인 장산의료재단이춘택병원,병원,127.0157405,37.2718951,17,0,0,0,17
의료법인 정민의료재단 보은한양병원,병원,127.718118,36.4832229,8,1,0,0,7
의료법인 정상의료재단 바른병원,병원,128.0917102,35.1791933,14,0,0,0,14
의료법인 정진의료재단 영화병원,병원,126.7349648,37.4008343,3,0,0,0,3
의료법인 제일의료재단 제일병원,병원,126.999275,37.5614,13,0,0,0,13
의료법인 제중원 제남병원,병원,128.5821659,36.2999848,1,0,0,0,1
의료법인 조윤의료재단 영동병원,병원,127.7808937,36.1852368,13,0,0,0,13
의료법인 중원의료재단 충주중앙병원,병원,127.932996,36.9740593,6,0,0,0,6
의료법인 청파의료재단 송탄중앙병원,병원,127.0641088,37.0885603,4,1,0,0,3
의료법인 청해의료재단 제일병원,병원,126.995067,37.4878422,5,0,0,0,5
의료법인 최헌식기념의료재단 최병원,병원,127.4529099,36.6347646,0,0,0,0,0
의료법인 춘천서인병원,병원,127.72795,37.77075,5,0,0,0,5
의료법인 춘혜의료재단 명지춘혜재활병원,병원,126.8970446,37.5006662,10,2,0,0,8
의료법인 태성의료재단 금왕태성병원,병원,127.5986293,36.9974858,10,0,0,0,10
의료법인 토마스의료재단 안양윌스기념병원,병원,126.958234,37.3727681,13,0,0,0,13
의료법인 토마스의료재단 윌스기념병원,병원,127.0255443,37.2653229,28,0,0,0,28
의료법인 파란시티의료재단 부산항운병원,병원,129.0963755,35.1975299,11,0,0,0,11
의료법인 평화의료재단 군산성신병원,병원,126.7061673,35.9763071,8,1,0,0,7
의료법인 평화의료재단 정읍성신병원,병원,126.8477147,35.576321,2,1,0,0,1
의료법인 풍진의료재단 스마트허브병원,병원,126.7305321,37.3355259,2,1,0,0,1
의료법인 학산의료재단 아라한국병원,병원,128.4317397,35.274268,3,0,0,0,3
의료법인 한누리의료재단 큰솔병원,병원,129.1277493,35.189596,0,0,0,0,0
의료법인 한미의료재단 김숙자소아청소년병원,병원,127.4754592,36.644017,3,0,0,0,3
의료법인 한성재단 S서울병원,병원,127.0417554,37.2746692,6,0,0,0,6
의료법인 해동의료재단 청도메타병원,병원,128.7508206,35.6331467,4,0,0,0,4
의료법인 해안의료재단 해안1병원,병원,128.6812265,36.3536926,3,0,0,0,3
의료법인 행복한의료재단 센텀병원,병원,128.087695,35.1842234,2,0,0,0,2
의료법인 현대소망의료재단 현대병원,병원,127.5766519,37.0316169,5,0,0,0,5
의료법인 현창의료재단 서서울병원,병원,126.957018,37.5577118,0,0,0,0,0
의료법인 혜광의료재단 충북병원,병원,127.4450214,36.5072274,5,0,0,0,5
의료법인 혜성병원,병원,126.7461681,35.7328128,8,1,0,0,7
의료법인 화성의료재단 화성제일병원,병원,126.8593976,37.1282955,0,0,0,0,0
의료법인 효민의료재단 큰사랑병원,병원,128.6046397,35.8846232,2,0,0,0,2
의료법인 힐튼의료재단 솔병원,병원,126.7363774,35.7306918,2,1,0,0,1
의료법인갑을의료재단갑을녹산병원,병원,128.8533297,35.0905709,13,2,0,0,11
의료법인강의료재단 강병원,병원,128.5699373,35.8936962,7,0,0,0,7
의료법인강현의료재단 김해솔병원,병원,128.8698587,35.260347,0,0,0,0,0
의료법인경동의료재단효성병원,병원,128.61275,35.8427071,33,0,0,0,33
의료법인고담의료재단마야병원,병원,129.0151237,35.9109578,10,0,0,0,10
의료법인고려의료재단부산고려병원,병원,129.092639,35.1348734,23,1,0,0,22
의료법인광양의료재단 광양병원,병원,127.5820632,34.9712244,1,0,0,0,1
의료법인구암의료재단 시티병원,병원,129.3851875,36.0876737,7,0,0,0,7
의료법인기상의료재단카이저병원,병원,127.1404628,37.6051338,5,1,0,0,4
의료법인나누리의료재단나누리병원,병원,126.7309501,37.4995278,18,0,0,0,18
의료법인남우의료재단 진도전남병원,병원,126.2651434,34.4792719,3,1,0,0,2
의료법인내일의료재단 현대여성아동병원,병원,127.5226911,34.9534001,15,0,0,0,15
의료법인다나의료재단구로다나병원,병원,126.8567727,37.4969841,4,0,0,0,4
의료법인대남의료재단청도대남병원,병원,128.7368062,35.6486288,7,1,0,0,6
의료법인대송의료재단 곡성사랑병원,병원,127.2879457,35.276282,8,2,0,0,6
의료법인대종의료재단부곡온천병원,병원,128.5798276,35.4420721,6,0,0,0,6
의료법인동승의료재단동승병원,병원,128.92964,35.932613,4,0,0,0,4
의료법인동원의료재단강남동강병원,병원,129.3146046,35.5382803,3,0,0,0,3
의료법인마리아의료재단마리아병원,병원,127.0253291,37.5742265,9,0,0,0,9
의료법인마리아의료재단마리아병원,병원,127.1244081,37.4932775,7,0,0,0,7
의료법인명문의료재단 대구기독병원,병원,128.5568729,35.8569327,5,1,0,0,4
의료법인명성의료재단영양병원,병원,129.1171477,36.6626832,4,0,0,0,4
의료법인명은의료재단 명은병원,병원,129.0766915,35.1881454,6,0,0,0,6
의료법인배성의료재단 배성병원,병원,128.6222914,35.9081211,6,0,0,0,6
의료법인백산의료재단K마디병원,병원,128.5738756,35.8882107,4,0,0,0,4
의료법인백성의료재단 안중백병원,병원,126.958637,37.003375,13,2,0,0,11
의료법인보람의료재단보람병원,병원,126.7379338,37.5318896,3,0,0,0,3
의료법인본플러스재단분당병원,병원,127.10633,37.3637163,3,0,0,0,3
의료법인삼선의료재단 영암병원,병원,126.7011016,34.7942935,6,1,0,0,5
의료법인삼영의료재단 둔산병원,병원,127.3742301,36.3506732,5,1,0,0,4
의료법인삼정의료재단포항여성병원,병원,129.3544435,36.0216748,14,0,0,0,14
의료법인삼호의료재단 삼호병원,병원,127.3456593,34.8338452,10,1,0,0,9
의료법인상록의료재단화정병원,병원,126.8469766,37.6183805,3,0,0,0,3
의료법인상보의료재단 대구경상병원,병원,128.55842,35.8573541,6,0,0,0,6
의료법인상운의료재단동탄제일병원,병원,127.078515,37.2164558,33,0,0,0,33
의료법인샘의료재단청주복음병원,병원,127.4650475,36.634814,2,1,0,0,1
의료법인서강의료재단 서강병원,병원,129.0568585,35.1388001,2,0,0,0,2
의료법인서광의료재단 성북중앙병원,병원,127.0356225,37.5967616,11,3,0,0,8
의료법인서연의료재단 신안천사병원,병원,126.1148981,34.8288681,2,1,0,0,1
의료법인서영의료재단 광양우리병원,병원,127.5864183,34.9703402,7,0,0,0,7
의료법인서원의료재단김형근예병원,병원,126.9733491,37.4037484,7,0,0,0,7
의료법인서일의료재단문경중앙병원,병원,128.1990743,36.5959618,7,3,0,0,4
의료법인서전의료재단한사랑병원,병원,126.8484449,37.3070834,12,0,0,0,12
의료법인석경의료재단창원센텀병원,병원,128.6808106,35.2234911,3,0,0,0,3
의료법인석촌의료재단성주무강병원,병원,128.286425,35.918801,4,1,0,0,3
의료법인성베드로병원,병원,127.0458111,37.7474938,15,0,0,0,15
의료법인성산의료재단새빛병원,병원,129.2111142,35.84234,4,0,0,0,4
의료법인성석의료재단동작경희병원,병원,126.9357591,37.5026337,2,1,0,0,1
의료법인성신의료재단 우리 원병원,병원,128.9708752,35.0559349,5,1,0,0,4
의료법인성은의료재단참조은병원,병원,126.8524347,35.5678006,2,0,0,0,2
의료법인성전의료재단 대전신생병원,병원,127.3064375,36.3320583,0,0,0,0,0
의료법인성지의료재단제천성지병원,병원,128.2140156,37.1526068,6,0,0,0,6
의료법인성하의료재단 누가병원,병원,126.7335819,35.9752879,6,0,0,0,6
의료법인세양의료재단신안병원,병원,126.392807,34.789511,2,0,0,0,2
의료법인센텀의료재단 서부산센텀병원,병원,128.9845613,35.1612103,14,0,0,0,14
의료법인송설의료재단수원백병원,병원,127.0162887,37.2790348,5,0,0,0,5
의료법인송하의료재단베스티안부천병원,병원,126.7722713,37.4834476,3,0,0,0,3
의료법인승연의료재단 삼천포서울병원,병원,128.0804186,34.9332698,17,1,0,0,16
의료법인신안대우의료재단 신안대우병원,병원,125.9326075,34.7222702,2,0,1,0,1
의료법인아너의료재단 아름다운강산병원,병원,129.1099375,35.2162763,8,0,0,0,8
의료법인아림의료재단서경병원,병원,127.8976579,35.681372,10,1,0,0,9
의료법인양경의료재단 중앙U병원,병원,128.999025,35.0903987,11,0,0,0,11
의료법인양진의료재단 성세아이들병원,병원,127.1061948,36.9903775,8,0,0,0,8
의료법인에스엠씨의료재단울산세민병원,병원,129.3309774,35.5566093,10,2,0,0,8
의료법인열경의료재단 허병원,병원,128.5397006,35.8336446,7,1,0,0,6
의료법인염광의료재단세광병원,병원,128.6610389,35.14965,7,0,0,0,7
의료법인영경의료재단호성전주병원,병원,127.1479135,35.8654628,16,0,0,0,16
의료법인영암의료재단고령영생병원,병원,128.2721568,35.7299781,4,0,0,0,4
의료법인영은의료재단김천신경정신병원,병원,128.1147395,36.148379,5,0,0,0,5
의료법인영은의료재단하나병원,병원,128.7453875,35.6493571,4,0,0,0,4
의료법인영재의료재단 큰솔병원,병원,128.9823213,35.1408942,11,1,0,0,10
의료법인영제의료재단영남제일병원,병원,128.434316,36.3892714,4,0,0,0,4
의료법인완주의료재단한마음화산병원,병원,127.2246847,36.0120432,4,0,0,0,4
의료법인왜관병원,병원,128.401513,35.996085,9,1,0,0,8
의료법인용호의료재단 해남우석병원,병원,126.6085008,34.5680455,6,0,0,0,6
의료법인우신향병원,병원,127.0312033,37.5848585,7,0,0,0,7
의료법인우암의료재단진동태봉병원,병원,128.5109546,35.1454973,0,0,0,0,0
의료법인원의료재단 주병원,병원,128.9218553,35.2307358,0,0,0,0,0
의료법인위더스의료재단위더스병원,병원,128.5731341,35.2020685,5,3,0,0,2
의료법인유민의료재단산울림병원,병원,128.4110241,35.9304185,5,0,0,0,5
의료법인의인의료재단차병원,병원,126.697585,35.968474,8,0,0,0,8
의료법인인성의료재단 함평성심병원,병원,126.519875,35.061925,5,0,0,0,5
의료법인인혜의료재단가나병원,병원,129.097125,35.122149,7,0,0,0,7
의료법인일산복음병원,병원,126.7800452,37.6819744,16,2,0,0,14
의료법인자인의료재단자인메디병원,병원,126.8357089,37.623017,16,0,0,0,16
의료법인장호의료재단 녹동현대병원,병원,127.1457,34.5462583,12,2,0,0,10
의료법인정애의료재단서울초이스병원,병원,127.1212686,37.5337225,3,0,0,0,3
의료법인정우의료재단프라우메디병원,병원,129.3359246,35.5418919,14,0,0,0,14
의료법인제민의료재단동서병원,병원,126.9302881,37.5646698,2,0,0,0,2
의료법인지석의료재단 효병원,병원,127.0078078,35.7448657,5,0,0,0,5
의료법인지원의료재단 굿모닝병원,병원,128.7680501,35.490299,3,0,0,0,3
의료법인진의료재단 순천평화병원,병원,127.4832283,34.9073975,7,0,0,0,7
의료법인창녕서울의료재단창녕서울병원,병원,128.4977331,35.5348238,3,0,0,0,3
의료법인청봉의료재단성누가병원,병원,128.6246343,36.8215975,8,1,0,0,7
의료법인청암의료재단음성연세병원,병원,127.6812093,36.9319442,0,0,0,0,0
의료법인청주병원,병원,127.4888295,36.6431192,5,1,0,0,4
의료법인춘곡의료재단수성메트로병원,병원,128.6460375,35.8594321,8,0,0,0,8
의료법인칠석의료재단사랑의병원,병원,126.8447816,37.3270215,21,0,0,0,21
의료법인태훈의료재단새희망병원,병원,128.5974212,36.8256361,4,0,0,0,4
의료법인한국의료재단프라임병원,병원,127.0794651,37.6172336,1,0,0,0,1
의료법인한길의료재단한길안과병원,병원,126.722362,37.494578,30,1,0,3,26
의료법인한마음의료재단 여수제일병원,병원,127.6634937,34.7661014,45,2,0,0,43
의료법인한서의료재단 진영병원,병원,128.7270426,35.3060559,10,0,0,0,10
의료법인한성재단동아메디병원,병원,128.6336046,35.8277966,6,0,0,0,6
의료법인항운의료재단목포노동병원,병원,126.3860375,34.7869417,2,1,0,0,1
의료법인해성의료재단해성병원,병원,128.5028136,35.8551247,5,0,0,0,5
의료법인해정의료재단더좋은병원,병원,128.6185385,35.8544183,4,0,0,0,4
의료법인행복나눔의료재단 장성병원,병원,126.7835665,35.3058681,8,1,0,0,7
의료법인현경의료재단 광양서울병원,병원,127.6905821,34.9579361,14,2,0,0,12
의료법인현백의료재단사상고려병원,병원,128.9827982,35.1699298,2,0,0,0,2
의료법인현암의료재단 포항우리병원,병원,129.3523389,36.0215498,9,0,0,0,9
의료법인혜수의료재단베리굿병원,병원,127.1131426,37.6499251,9,0,0,0,9
의료법인혜원의료재단혜원성모병원,병원,128.3838193,36.0032474,6,0,0,0,6
의료법인환명의료재단금강병원,병원,128.883062,35.2283809,3,0,0,0,3
의료법인희원 래봄병원,병원,128.8691545,35.2299506,4,0,0,0,4
의정부힐링스병원,병원,127.0709609,37.7530556,7,0,0,0,7
이노스이비인후과병원,병원,127.5210218,34.963777,5,0,0,0,5
이레 아이병원,병원,129.0028103,35.3172103,2,0,0,0,2
이룸병원,병원,126.7759172,37.5157867,7,1,0,0,6
이샘병원,병원,129.0611542,35.1476285,22,0,0,0,22
이수병원,병원,127.1078302,36.7897896,6,0,0,0,6
이안과병원,병원,127.4276084,36.3263045,6,0,0,0,6
이음병원,병원,127.0733284,37.274844,4,0,0,0,4
이천엘리야병원,병원,127.6120522,37.1154354,10,0,0,0,10
이천파티마병원,병원,127.4490305,37.2747641,4,1,0,0,3
이화병원,병원,127.1255011,36.7942423,9,0,0,0,9
익산제일병원,병원,126.9526485,35.9313438,4,0,0,0,4
익산희망병원,병원,126.9490375,35.9428013,0,0,0,0,0
인본병원,병원,126.7359063,37.7284902,5,0,0,0,5
인본병원,병원,126.7537064,37.5051615,8,0,0,0,8
인성병원,병원,127.7268737,37.8812798,8,1,0,0,7
인성병원,병원,129.3911602,36.0809778,7,0,0,0,7
인정병원,병원,126.9163519,37.5865312,11,0,0,0,11
인제고려병원,병원,128.1735808,38.0677805,5,1,0,0,4
인제재활병원,병원,128.611538,35.86164,1,0,0,0,1
인천광역시의료원백령병원,병원,124.7210341,37.968009,8,1,0,0,7
인천마디병원,병원,126.7230062,37.5421215,7,0,0,0,7
인천바오로병원,병원,126.7296622,37.4988372,1,0,0,0,1
인천아시아드병원,병원,126.7108112,37.4491755,4,0,0,0,4
인천연세병원,병원,126.6744031,37.5503,5,0,0,0,5
인천우리병원,병원,126.6790019,37.4612752,5,0,0,0,5
인천적십자병원,병원,126.68922,37.4185425,10,1,0,0,9
인천정병원,병원,126.7075113,37.4654848,4,0,0,0,4
인천참사랑병원,병원,126.6761506,37.5166031,7,0,0,0,7
인천하이병원,병원,126.7300852,37.5435518,11,1,0,0,10
일산이십일세기병원,병원,126.7861723,37.6439354,8,0,0,0,8
일산중심병원,병원,126.7460892,37.6999585,10,0,0,0,10
일산하이병원,병원,126.7806167,37.6825471,9,0,0,0,9
자모여성병원,병원,129.1122858,35.1553664,13,0,0,0,13
장동욱병원,병원,126.7968839,37.3129537,2,0,0,0,2
장림한서병원,병원,128.9769707,35.0741258,5,0,0,0,5
장성혜원병원,병원,126.774488,35.2977611,2,0,0,0,2
장스여성병원,병원,127.0978977,37.599605,4,0,0,0,4
장유아동병원,병원,128.8079688,35.202457,3,0,0,0,3
장튼위튼병원,병원,126.957342,37.4798225,7,0,0,0,7
장흥우리병원,병원,126.9110664,34.6783837,7,0,0,0,7
장흥통합의료병원,병원,126.9583701,34.6790436,3,0,0,0,3
재)정선의료재단 군립병원,병원,128.8261822,37.2257003,6,0,0,0,6
재단법인 베스티안재단 베스티안부산병원,병원,129.0086207,35.2355818,8,0,0,0,8
재단법인 원불교 원병원,병원,126.9524265,35.966917,1,0,0,0,1
재단법인대성병원,병원,126.9458032,37.5889296,2,2,0,0,0
재단법인대성재단디에스병원,병원,126.7836336,37.4917421,2,0,0,0,2
재단법인대한스포츠의학재단강남나무병원,병원,127.0676539,37.4992672,2,1,0,0,1
재단법인수성마디병원,병원,128.6058829,35.8629058,0,0,0,0,0
재단법인원진녹색병원,병원,127.1338191,37.605975,8,1,0,0,7
재단법인한국산업보건환경연구소부설 해상병원,병원,126.9107282,37.5076024,3,0,0,0,3
전남중앙병원,병원,126.375678,34.8104274,11,0,0,0,11
전라남도 강진의료원,병원,126.7578654,34.6368113,18,3,0,0,15
전라남도순천의료원,병원,127.4834682,34.9579098,16,3,0,0,13
전라북도 마음사랑병원,병원,127.2553035,35.8602668,15,1,0,3,11
전병원,병원,126.731347,37.4487156,8,0,0,0,8
전주21세기병원,병원,127.1195694,35.8509237,8,0,0,0,8
전주기독병원,병원,127.1153735,35.8087119,6,0,0,0,6
전주다솔아동병원,병원,127.1021867,35.8171566,9,0,0,0,9
전주문병원,병원,127.1217261,35.8058383,2,0,0,0,2
전주샘물아동병원,병원,127.111421,35.8155525,2,0,0,0,2
전주시티병원,병원,127.1113072,35.81496,7,0,0,0,7
전주신세계정형외과병원,병원,127.1205805,35.8582307,6,0,0,0,6
전주우리들병원,병원,127.1081943,35.8031428,7,0,0,0,7
전주우리병원,병원,127.123874,35.8054372,4,0,0,0,4
전주우석병원,병원,127.128492,35.8173746,3,0,0,0,3
전주항병원,병원,127.1296919,35.799079,3,0,0,0,3
정관우리아동병원,병원,129.179536,35.3217486,4,0,0,0,4
정근안과병원,병원,129.0555001,35.1580587,8,0,0,0,8
정답병원,병원,127.0267519,37.2682587,5,0,0,0,5
정동병원,병원,126.9494571,37.5049384,6,0,0,0,6
정병원,병원,127.04182,37.6615407,1,0,0,0,1
정병원,병원,127.9330089,37.355171,4,0,0,0,4
정빈의료재단 합덕아산병원,병원,126.7745174,36.8079328,1,0,0,0,1
정읍박병원,병원,126.848775,35.5743917,1,0,0,0,1
정읍사랑병원,병원,126.8715267,35.5645783,9,0,0,0,9
제니스병원,병원,127.0864991,37.5464849,4,0,0,0,4
제니스병원,병원,129.3276025,35.5394876,20,3,0,0,17
제이미주병원,병원,128.4665511,35.8571789,5,1,0,0,4
제이병원,병원,128.549127,35.8552399,3,0,0,0,3
제이에스병원,병원,126.955518,37.2735435,12,0,0,0,12
제이여성병원,병원,126.9449345,37.5885092,9,0,0,0,9
제이케이병원,병원,126.8399297,37.3308296,3,2,0,0,1
제일강한병원,병원,129.2150227,35.8441611,4,0,0,0,4
제일내과병원,병원,126.4191739,34.8109786,4,0,0,0,4
제일병원,병원,128.7482411,35.4962374,8,0,0,0,8
제일안과병원,병원,128.6146732,35.8818038,13,0,0,4,9
제일여성병원,병원,129.1730998,35.1707382,7,0,0,0,7
제일정형외과병원,병원,127.0561257,37.5228163,21,0,0,0,21
제주권역재활병원,병원,126.5624301,33.2528851,5,0,0,0,5
제주선한병원,병원,126.5470717,33.4688281,3,0,0,0,3
제주우리병원,병원,126.5396123,33.4889869,8,0,0,0,8
제주특별자치도제주의료원,병원,126.5608324,33.4449393,7,0,0,0,7
조앤조병원,병원,127.1047339,37.6003058,6,0,0,0,6
조연이비인후과병원,병원,126.4206704,34.8035707,1,0,0,0,1
조은마디병원,병원,127.133156,37.5343673,4,0,0,0,4
조은손병원,병원,127.1948421,37.2352292,4,0,0,0,4
조이병원,병원,127.3854498,36.3436279,11,0,0,0,11
조인트힐병원,병원,126.9175762,37.4737183,4,0,0,0,4
좋은날에 드라마여성병원,병원,129.1076027,35.1961103,9,0,0,0,9
좋은아침병원,병원,127.1311592,37.6004537,12,0,0,0,12
좋은의사들안과병원,병원,129.3304127,35.5383306,4,0,0,0,4
주성산 이진용맘병원,병원,129.0798349,35.184312,4,0,0,0,4
중앙메디컬병원,병원,127.916749,35.6872967,9,0,0,0,9
중앙병원,병원,126.880533,35.1523695,3,1,0,0,2
중앙아동병원,병원,126.8320078,35.1824415,6,0,0,0,6
중앙학문병원,병원,129.324849,35.5370892,3,0,0,0,3
지성병원,병원,126.6322704,37.4520472,6,0,0,0,6
지앤지병원,병원,127.0597063,37.5162595,10,0,0,0,10
지우병원,병원,127.1401962,37.4437281,8,0,0,0,8
지혜로운아동병원,병원,128.4547492,35.6926174,2,0,0,0,2
지혜병원,병원,127.0659434,37.5616321,5,0,0,0,5
진도한국병원,병원,126.2640944,34.4824205,6,0,0,0,6
진병원,병원,128.7132393,35.8662971,4,0,0,0,4
진아동병원,병원,129.0215342,35.1535618,3,0,0,0,3
진안군의료원,병원,127.4320459,35.7953017,13,0,0,0,13
진영새싹병원,병원,128.7366013,35.3066815,4,0,0,0,4
진주미래여성병원,병원,128.0875431,35.1854521,6,0,0,0,6
진주복음병원,병원,128.0693674,35.1853748,15,1,0,0,14
진주본병원,병원,128.0600607,35.1725456,7,0,0,0,7
진주세란병원,병원,128.0929554,35.1744787,12,0,0,0,12
진천신라병원,병원,128.5169208,35.8110538,2,0,0,0,2
차병원,병원,126.8179493,35.1719838,2,1,0,0,1
착한마디병원,병원,126.6564677,37.602849,3,0,0,0,3
참다남병원,병원,127.4225922,36.3252832,3,0,0,0,3
참바로병원,병원,127.0166374,37.5657465,6,0,0,0,6
참바른병원,병원,129.3341147,35.5391017,7,1,0,0,6
참병원,병원,129.0215342,35.1535618,3,1,0,0,2
참병원,병원,127.1249143,35.803688,5,0,0,0,5
참여성병원,병원,128.5762945,35.2061203,6,0,0,0,6
참조은병원,병원,128.5515886,35.8302872,12,0,0,0,12
참튼튼병원,병원,127.0693818,37.5727378,7,0,0,0,7
참튼튼병원,병원,127.0636241,37.654566,11,0,0,0,11
참튼튼병원,병원,126.9003918,37.48213497,20,2,0,0,18
참튼튼병원,병원,127.0520382,37.7383753,9,1,0,0,8
참튼튼병원,병원,127.1360147,37.599149,1,0,0,0,1
참튼튼병원,병원,128.5624257,35.8599186,7,0,0,0,7
참포도나무병원,병원,127.0387018,37.4799379,10,0,0,0,10
참푸른병원,병원,126.9899521,37.4930421,6,0,0,0,6
창원중앙병원,병원,128.7007423,35.2140331,10,0,0,0,10
창평우리병원,병원,127.006925,35.2524083,5,0,0,0,5
채움병원,병원,129.3712176,36.0462604,2,1,0,0,1
채원자연통합병원,병원,127.1270918,37.5276513,2,0,0,0,2
척병원,병원,127.5093028,34.9414039,3,0,0,0,3
척사랑병원,병원,126.7598952,37.6711517,7,0,0,0,7
척시원병원,병원,129.0392584,35.1118696,8,0,0,0,8
척척병원,병원,128.5502209,35.9421513,8,0,0,0,8
척탑병원,병원,128.5827018,35.8654569,13,0,0,0,13
척편한병원,병원,126.9302485,37.4825924,4,0,0,0,4
천안21세기병원,병원,127.1378992,36.8365748,6,0,0,0,6
천안센텀정형외과신경외과병원,병원,127.1057406,36.7974367,8,0,0,0,8
천안우리병원,병원,127.1557598,36.7809945,16,1,0,0,15
천안중앙병원,병원,127.1378414,36.82721473,5,0,0,0,5
철원병원,병원,127.3079502,38.1504492,11,1,0,0,10
첨단다온병원,병원,126.8423889,35.219299,2,1,0,0,1
첨단선병원,병원,126.863056,35.2002064,11,1,0,0,10
첨단우리병원,병원,126.8428334,35.2216255,6,0,0,0,6
첨단우암병원,병원,126.8532769,35.2185656,5,1,0,0,4
청담병원,병원,127.0456922,37.5207651,7,0,0,0,7
청라국제병원,병원,126.6568209,37.5339778,13,0,0,0,13
청라스퀘어병원,병원,126.6420996,37.5322853,6,1,0,0,5
청라여성병원,병원,126.6502991,37.5334657,25,0,0,0,25
청라연세어린이병원,병원,126.6516568,37.5333879,4,0,0,0,4
청라좋은병원,병원,126.6556845,37.5323157,1,0,0,0,1
청맥병원,병원,129.0595252,35.1566938,7,0,0,0,7
청병원,병원,127.1210362,37.5302703,8,0,0,0,8
청봉기념병원,병원,127.208755,37.5414013,3,0,0,0,3
청송진보병원,병원,129.0266045,36.5357901,5,0,0,0,5
청심병원,병원,126.945863,35.130849,5,0,0,0,5
청연병원,병원,126.930393,35.17931946,4,0,0,0,4
청연우리병원,병원,127.5090508,34.9405169,3,0,0,0,3
청주소아청소년병원,병원,127.4719345,36.653488,3,0,0,0,3
청주푸른병원,병원,127.4297883,36.6258557,9,1,0,0,8
청주프라임병원,병원,127.4277692,36.6306801,11,0,0,0,11
청주현대병원,병원,127.4245707,36.6330102,9,0,0,0,9
청평우리병원,병원,127.415475,37.7371846,3,0,0,0,3
청화병원,병원,126.9401875,37.507275,17,0,0,0,17
초앤유여성병원,병원,126.7697811,37.5019178,7,0,0,0,7
초이스병원,병원,127.0450133,37.2740378,2,0,0,0,2
최병원,병원,128.6136501,35.89681945,7,0,0,0,7
최원호병원,병원,126.9238664,37.6047776,9,0,0,0,9
추새로병원,병원,127.443673,37.2815032,7,0,0,0,7
춘천예현병원,병원,127.6173423,37.8513108,6,0,0,0,6
충무사랑병원,병원,127.1389938,36.8267835,4,0,0,0,4
치항병원,병원,126.8312625,37.317725,6,0,0,0,6
침산제이병원,병원,128.5860416,35.8890101,2,0,0,0,2
카톨릭병원,병원,127.4781245,36.6361132,4,0,0,0,4
카프성모병원,병원,126.7911331,37.6451694,3,0,0,0,3
케이성형외과병원,병원,129.0611542,35.1476285,5,0,0,0,5
케이에스병원,병원,127.0439661,37.5093284,9,0,0,0,9
케이에스병원,병원,126.8321231,37.3190593,3,0,0,0,3
코끼리휴병원,병원,126.8567955,35.1446149,4,0,0,0,4
코리아병원,병원,127.0715342,37.5731957,2,0,0,0,2
코젤병원,병원,127.3469003,36.35179,6,0,0,0,6
코키아병원,병원,126.7347974,37.7279575,2,0,0,0,2
퀸즈파크여성병원,병원,129.1757451,35.168815,5,0,0,0,5
큐병원,병원,128.9648738,35.1066065,7,0,0,0,7
큰마디큰병원,병원,129.2177117,35.8486001,8,1,0,0,7
큰빛병원,병원,129.303125,35.533425,3,0,0,0,3
큰빛웅촌병원,병원,129.2206966,35.4875077,3,0,0,0,3
키움병원,병원,126.7441058,35.97659556,3,0,0,0,3
키즈드림아이엠씨병원,병원,127.0560516,35.8368477,4,0,0,0,4
키즈웰소아청소년과병원,병원,128.5860884,35.2235829,4,0,0,0,4
킴벨피부과병원,병원,127.3799643,36.3541121,4,0,0,0,4
탄방엠블병원,병원,127.3840565,36.3437038,7,0,0,0,7
탄탄병원,병원,127.3854354,36.3461031,11,0,0,0,11
탑동병원,병원,126.522168,33.5176934,4,0,0,0,4
태광의료재단함안중앙병원,병원,128.4265545,35.2781579,0,0,0,0,0
태릉마이크로병원,병원,127.0749719,37.6182237,2,0,0,0,2
태안열린병원,병원,126.2948826,36.7516969,4,0,0,0,4
태영21병원,병원,126.8844886,35.1608879,4,0,0,0,4
태황의료재단한성병원,병원,128.493308,35.5421488,8,0,0,0,8
토마스병원,병원,127.035234,37.52851221,3,0,0,0,3
통영고려병원,병원,128.4288452,34.8578895,8,0,0,0,8
통영서울병원,병원,128.4155268,34.8700684,10,0,0,0,10
통영적십자병원,병원,128.4198871,34.8423835,8,0,0,0,8
통영중앙병원,병원,128.4192158,34.8877623,4,0,0,0,4
통합의료진흥원 전인병원,병원,128.5694675,35.8433226,12,3,0,0,9
트리니움여성병원,병원,127.3035233,36.4915874,9,0,0,0,9
튼튼건강의료소비자생협누리병원,병원,126.8107175,37.336608,3,3,0,0,0
튼튼병원,병원,126.9353183,37.60361037,15,0,0,0,15
튼튼소아청소년과병원,병원,128.0600607,35.1725456,3,0,0,0,3
튼튼아동병원,병원,129.346487,35.568951,0,0,0,0,0
튼튼어린이병원,병원,127.0446218,37.7497206,3,0,0,0,3
튼튼정형외과병원,병원,126.9142633,35.1732408,6,0,0,0,6
파로스병원,병원,127.0679083,37.6537182,3,0,0,0,3
파주미래아동병원,병원,126.7451347,37.712113,3,0,0,0,3
파크병원,병원,129.0099353,35.1054323,4,1,0,0,3
파크사이드재활의학병원,병원,129.0971432,35.125183,4,0,0,0,4
파티마여성병원,병원,128.6983524,35.8428167,12,0,0,0,12
팔팔병원,병원,127.0796941,37.5909515,9,0,0,0,9
퍼스트아동병원,병원,127.5339599,34.946966,6,1,0,0,5
편한함병원,병원,128.9889655,35.1971395,1,0,0,0,1
평안한사랑병원,병원,127.0422336,37.185912,3,0,0,0,3
평촌우리병원,병원,126.9476569,37.4010769,11,0,0,0,11
평촌중앙병원,병원,126.9530776,37.3903589,2,0,0,0,2
평택21세기병원,병원,127.1144865,36.9902785,9,0,0,0,9
평택비전병원,병원,127.1145754,37.0024639,3,0,0,0,3
포미즈여성병원,병원,126.8723522,37.5467929,11,1,0,0,10
포항인성병원,병원,129.3524984,36.0240393,4,0,0,0,4
포항재활의학병원,병원,129.3546212,36.0214187,1,0,0,0,1
푸른병원,병원,128.5889796,35.8759231,12,0,0,0,12
푸른사랑병원,병원,128.4650393,37.1833275,2,0,0,0,2
프라임병원,병원,128.9658521,35.1058783,8,0,0,0,8
플러스병원,병원,126.6448464,37.3929005,10,0,0,0,10
플러스아이미코병원,병원,127.520347,34.960469,4,0,0,0,4
하나병원,병원,128.9769625,35.0744833,7,0,0,0,7
하나병원,병원,128.5819088,35.2080609,6,0,0,0,6
하나성심병원,병원,126.7376514,35.7292727,1,0,0,0,1
하나소아청소년과병원,병원,127.242887,37.6540512,3,0,0,0,3
하나아동병원,병원,126.8441774,35.2173193,5,0,0,0,5
하나이비인후과병원,병원,127.0429907,37.4979011,12,0,0,0,12
하나이비인후과병원,병원,129.3223953,35.5364418,11,0,0,0,11
하남SD병원,병원,127.1981258,37.5397677,6,0,0,0,6
하늘병원,병원,127.0556475,37.5651838,15,2,0,0,13
하늘빛재활의학병원,병원,126.9569379,37.3664901,2,0,0,0,2
하동병원,병원,127.7383255,35.0826107,0,0,0,0,0
하동우리들병원,병원,127.8102616,34.9958188,6,0,0,0,6
하이병원,병원,126.7817394,37.5031608,9,0,0,0,9
학교법인건양학원건양대학교부여병원,병원,126.9017016,36.2755745,8,2,0,0,6
학교법인대진교육재단 제인병원,병원,127.0569539,37.5494673,5,2,0,0,3
한가람병원,병원,128.6416741,35.890464,2,0,0,0,2
한강수병원,병원,126.8909293,37.522415,10,0,0,0,10
한강아이제일병원,병원,126.6813653,37.6457718,7,0,0,0,7
한국보훈복지의료공단 인천보훈병원,병원,126.6526025,37.455702,19,2,0,0,17
한나여성아이병원,병원,129.1070253,35.1391953,7,0,0,0,7
한독병원,병원,127.0272625,37.2695896,2,0,0,0,2
한마음병원,병원,126.7221046,37.5283715,6,0,0,0,6
한마음병원,병원,129.1158784,37.51974056,7,0,0,0,7
한마음병원,병원,126.792921,35.1288242,4,0,0,0,4
한미병원,병원,128.5113746,35.8548248,6,0,0,0,6
한빛병원,병원,129.0589004,35.1458009,2,0,0,0,2
한빛아동병원,병원,129.2176972,35.8620832,3,0,0,0,3
한빛여성병원,병원,126.83226,37.3091291,7,0,0,0,7
한사랑내과병원,병원,129.0090884,35.2107623,8,0,0,0,8
한사랑병원,병원,126.8179582,35.1726294,14,0,0,0,14
한서중앙병원,병원,127.0477863,37.7319114,3,0,0,0,3
한성병원,병원,128.5978627,35.8762446,5,2,0,0,3
한성병원,병원,126.9575716,37.3695929,0,0,0,0,0
한솔병원,병원,127.1059124,37.5060777,29,1,0,0,28
한솔병원,병원,128.4668893,35.8569961,6,0,0,0,6
한신병원,병원,128.5566076,35.8633601,11,3,0,0,8
한양류마디병원,병원,129.0977103,35.188271,12,0,0,0,12
한양병원,병원,127.1351652,35.796151,5,0,0,0,5
한영한마음아동병원,병원,128.5559683,35.8346274,6,0,0,0,6
한일병원,병원,126.9103484,35.1333207,2,0,0,0,2
함양성심병원,병원,127.729213,35.520467,6,0,0,0,6
함열중앙병원,병원,126.9580934,36.0783862,2,0,0,0,2
합천고려병원,병원,128.161281,35.5530403,4,0,0,0,4
항사랑병원,병원,129.3299588,35.5338316,3,0,0,0,3
항스퀘어 병원,병원,128.9776548,35.0799238,1,0,0,0,1
항플러스병원,병원,128.9640494,35.1058693,3,0,0,0,3
해군포항병원,병원,129.4182919,35.9751684,21,0,0,0,21
해군해양의료원,병원,128.7129153,35.1463306,31,0,0,0,31
해남한국병원,병원,126.595716,34.5669326,3,0,0,0,3
해븐리병원,병원,126.7810874,37.6825551,7,0,0,0,7
해성병원,병원,127.0299775,37.2741204,3,0,0,0,3
해운대나눔과행복병원,병원,129.1690227,35.1660473,17,0,0,0,17
해운대푸른바다어린이병원,병원,129.1682073,35.165667,4,0,0,0,4
해주병원,병원,126.3586376,37.7690045,3,0,0,0,3
해피아이병원,병원,128.5577397,35.94299517,0,0,0,0,0
해피아이병원,병원,128.5577491,35.9429835,4,0,0,0,4
햇빛병원,병원,127.0302959,37.6157812,14,0,0,0,14
햇살병원,병원,127.2046294,37.5384705,8,0,0,0,8
햇살아동병원,병원,129.2277417,35.5630792,4,1,0,0,3
행복한 병원,병원,128.4706272,35.6932874,5,0,0,0,5
행복한병원,병원,128.7115164,35.3746457,3,0,0,0,3
행복한어린이병원,병원,128.9697485,35.0804772,2,0,0,0,2
행복한외과병원,병원,127.1468014,37.5954087,3,0,1,0,2
허&리병원,병원,128.648916,35.2439527,6,0,0,0,6
허리나은병원,병원,127.1241396,37.5381216,7,0,0,0,7
허리사랑병원,병원,127.3909445,36.339736,10,0,0,0,10
허리편한 병원,병원,127.1423674,36.9944618,6,0,0,0,6
허병원,병원,127.138524,35.8433912,2,0,0,0,2
허유재병원,병원,126.7699649,37.6629311,25,0,0,0,25
현대병원,병원,127.0009756,36.7831143,5,1,0,0,4
현대병원,병원,129.2064576,35.8451006,4,0,0,0,4
현대중앙병원,병원,127.938888,37.369382,2,0,0,0,2
현병원,병원,126.7850379,37.5190822,2,1,0,0,1
혜민안과병원,병원,127.1219354,37.4938555,4,0,0,0,4
혜성산부인과병원,병원,127.130446,36.800844,5,0,0,0,5
호남권역재활병원,병원,126.8835815,35.225678,5,1,0,0,4
호산여성병원,병원,127.0333541,37.5285704,9,0,0,0,9
호암병원,병원,127.9284321,36.9604046,2,0,0,0,2
호원병원,병원,127.0433969,37.729034,7,1,0,0,6
홍익재활병원,병원,128.625025,35.196735,1,0,0,0,1
화명일신기독병원(재단법인 한.호기독교선교회),병원,129.0139448,35.2316451,28,0,0,0,28
화사랑병원,병원,128.7005493,35.238864,4,0,0,0,4
화성디에스병원,병원,126.8257097,37.1992313,14,0,0,0,14
화성유일병원,병원,126.8326549,37.217785,14,1,0,0,13
화순고려병원,병원,126.9897418,35.0560876,12,0,0,0,12
화순성심병원,병원,126.9898798,35.05844065,12,1,0,0,11
화순중앙병원,병원,126.9809375,35.0585167,6,0,0,0,6
화원연세병원,병원,128.493375,35.801633,4,0,0,0,4
화인메트로병원,병원,127.1371404,36.8335315,12,2,0,0,10
화정아동병원,병원,126.8776567,35.15054958,3,0,0,0,3
화창한병원,병원,129.0910449,35.23523655,5,0,0,0,5
활기찬병원,병원,126.8307206,37.6316573,5,0,0,0,5
횡성대성병원,병원,127.9799525,37.4784679,8,2,0,0,6
효성시티병원,병원,129.1214789,35.1852049,12,0,0,0,12
휴메디병원,병원,127.191922,37.726372,3,1,0,0,2
휴병원,병원,129.0495013,35.1575928,10,0,0,0,10
휴앤유병원,병원,126.7725136,37.4830282,6,0,0,0,6
휴엔병원,병원,127.1440896,37.4399478,3,0,0,0,3
흥해아동병원,병원,129.3468213,36.1132418,1,0,0,0,1
희망병원,병원,127.1403239,35.3769255,1,0,0,0,1
희망병원,병원,127.000466,35.8071656,4,0,0,0,4
희망병원,병원,128.8110634,35.1004486,3,0,0,0,3
희망찬병원,병원,127.0373964,37.2131952,9,1,0,0,8
히즈메디병원,병원,126.7347225,37.6112181,16,0,0,0,16
힘내라병원,병원,129.0589148,35.1377687,12,0,0,0,12
힘센병원,병원,128.5989164,35.8451388,7,0,0,0,7
힘플러스병원,병원,127.5198452,34.9604482,10,0,0,0,10